{
"type": "FeatureCollection",
"name": "Etablissements_santé_filtre",
"crs": { "type": "name", "properties": { "name": "urn:ogc:def:crs:OGC:1.3:CRS84" } },
"features": [
{ "type": "Feature", "properties": { "type_etablissement": "pharmacy", "nom_etablissement": "Pharmacie Beauregard", "website": null, "wikidata": null, "commune": "Rennes", "code_commune": "35238", "departement": "Ille-et-Vilaine", "code_departement": "35", "region": "Bretagne", "code_region": "53", "Métropole": "Rennes" }, "geometry": { "type": "Point", "coordinates": [ -1.69915690542189, 48.128939445797897 ] } },
{ "type": "Feature", "properties": { "type_etablissement": "pharmacy", "nom_etablissement": "Pharmacie de l'Argentière", "website": null, "wikidata": null, "commune": "Sassenage", "code_commune": "38474", "departement": "Isère", "code_departement": "38", "region": "Auvergne-Rhône-Alpes", "code_region": "84", "Métropole": "Grenoble" }, "geometry": { "type": "Point", "coordinates": [ 5.66928054855609, 45.200450752839203 ] } },
{ "type": "Feature", "properties": { "type_etablissement": "pharmacy", "nom_etablissement": "Pharmacie du Drugstore", "website": null, "wikidata": null, "commune": "Rouen", "code_commune": "76540", "departement": "Seine-Maritime", "code_departement": "76", "region": "Normandie", "code_region": "28", "Métropole": "Rouen" }, "geometry": { "type": "Point", "coordinates": [ 1.09573238139714, 49.443037545354201 ] } },
{ "type": "Feature", "properties": { "type_etablissement": "pharmacy", "nom_etablissement": "Pharmacie de la Forge", "website": null, "wikidata": null, "commune": "Saint-Grégoire", "code_commune": "35278", "departement": "Ille-et-Vilaine", "code_departement": "35", "region": "Bretagne", "code_region": "53", "Métropole": "Rennes" }, "geometry": { "type": "Point", "coordinates": [ -1.68492611021389, 48.151226088145997 ] } },
{ "type": "Feature", "properties": { "type_etablissement": "doctors", "nom_etablissement": "Dr Pierre Bodart", "website": null, "wikidata": null, "commune": "Vif", "code_commune": "38545", "departement": "Isère", "code_departement": "38", "region": "Auvergne-Rhône-Alpes", "code_region": "84", "Métropole": "Grenoble" }, "geometry": { "type": "Point", "coordinates": [ 5.6720834569773, 45.055233358348701 ] } },
{ "type": "Feature", "properties": { "type_etablissement": "pharmacy", "nom_etablissement": "Pharmacie Centrale", "website": null, "wikidata": null, "commune": "Vif", "code_commune": "38545", "departement": "Isère", "code_departement": "38", "region": "Auvergne-Rhône-Alpes", "code_region": "84", "Métropole": "Grenoble" }, "geometry": { "type": "Point", "coordinates": [ 5.66820607238827, 45.055836352462997 ] } },
{ "type": "Feature", "properties": { "type_etablissement": "clinic", "nom_etablissement": "Maison médicale de la Marre Pavée", "website": null, "wikidata": null, "commune": "Cesson-Sévigné", "code_commune": "35051", "departement": "Ille-et-Vilaine", "code_departement": "35", "region": "Bretagne", "code_region": "53", "Métropole": "Rennes" }, "geometry": { "type": "Point", "coordinates": [ -1.61153114854144, 48.122862230720997 ] } },
{ "type": "Feature", "properties": { "type_etablissement": "pharmacy", "nom_etablissement": "Pharmacie de Bretagne", "website": "http://www.pharmaciedebretagne.fr", "wikidata": null, "commune": "Rennes", "code_commune": "35238", "departement": "Ille-et-Vilaine", "code_departement": "35", "region": "Bretagne", "code_region": "53", "Métropole": "Rennes" }, "geometry": { "type": "Point", "coordinates": [ -1.68477607414709, 48.109432074904198 ] } },
{ "type": "Feature", "properties": { "type_etablissement": "doctors", "nom_etablissement": "Christian Plassart", "website": null, "wikidata": null, "commune": "Betton", "code_commune": "35024", "departement": "Ille-et-Vilaine", "code_departement": "35", "region": "Bretagne", "code_region": "53", "Métropole": "Rennes" }, "geometry": { "type": "Point", "coordinates": [ -1.64510310150331, 48.181736550973703 ] } },
{ "type": "Feature", "properties": { "type_etablissement": "doctors", "nom_etablissement": "Marianne Ziegler", "website": "https://orthopediste-grenoble.fr/", "wikidata": null, "commune": "Grenoble", "code_commune": "38185", "departement": "Isère", "code_departement": "38", "region": "Auvergne-Rhône-Alpes", "code_region": "84", "Métropole": "Grenoble" }, "geometry": { "type": "Point", "coordinates": [ 5.7196945948406, 45.184718088220599 ] } },
{ "type": "Feature", "properties": { "type_etablissement": "dentist", "nom_etablissement": "Docali", "website": "https://docali.fr/adresses/docali-rouen-centre-dentaire-saint-sever/", "wikidata": null, "commune": "Rouen", "code_commune": "76540", "departement": "Seine-Maritime", "code_departement": "76", "region": "Normandie", "code_region": "28", "Métropole": "Rouen" }, "geometry": { "type": "Point", "coordinates": [ 1.08746355009743, 49.432454638226297 ] } },
{ "type": "Feature", "properties": { "type_etablissement": "pharmacy", "nom_etablissement": "Pharmacie Jaouen", "website": null, "wikidata": null, "commune": "Vezin-le-Coquet", "code_commune": "35353", "departement": "Ille-et-Vilaine", "code_departement": "35", "region": "Bretagne", "code_region": "53", "Métropole": "Rennes" }, "geometry": { "type": "Point", "coordinates": [ -1.75734424489048, 48.119070173906302 ] } },
{ "type": "Feature", "properties": { "type_etablissement": "doctors", "nom_etablissement": "Docteur Pascale Brun-Dupuy", "website": null, "wikidata": null, "commune": "Montpellier", "code_commune": "34172", "departement": "Hérault", "code_departement": "34", "region": "Occitanie", "code_region": "76", "Métropole": "Montpellier" }, "geometry": { "type": "Point", "coordinates": [ 3.85967316712859, 43.582531042924501 ] } },
{ "type": "Feature", "properties": { "type_etablissement": "dentist", "nom_etablissement": "Olivier Quéré", "website": null, "wikidata": null, "commune": "Rennes", "code_commune": "35238", "departement": "Ille-et-Vilaine", "code_departement": "35", "region": "Bretagne", "code_region": "53", "Métropole": "Rennes" }, "geometry": { "type": "Point", "coordinates": [ -1.66339886829334, 48.094562997769501 ] } },
{ "type": "Feature", "properties": { "type_etablissement": "clinic", "nom_etablissement": null, "website": null, "wikidata": null, "commune": "Déville-lès-Rouen", "code_commune": "76216", "departement": "Seine-Maritime", "code_departement": "76", "region": "Normandie", "code_region": "28", "Métropole": "Rouen" }, "geometry": { "type": "Point", "coordinates": [ 1.05183551628713, 49.465710258162403 ] } },
{ "type": "Feature", "properties": { "type_etablissement": "nursing_home", "nom_etablissement": "Foyer Saint-Joseph", "website": null, "wikidata": "Q112923459", "commune": "Rouen", "code_commune": "76540", "departement": "Seine-Maritime", "code_departement": "76", "region": "Normandie", "code_region": "28", "Métropole": "Rouen" }, "geometry": { "type": "Point", "coordinates": [ 1.10447646660677, 49.445002263458001 ] } },
{ "type": "Feature", "properties": { "type_etablissement": "pharmacy", "nom_etablissement": "Pharmacie du Caducée", "website": "https://pharmacieducaducee.pharminfo.fr", "wikidata": null, "commune": "Grenoble", "code_commune": "38185", "departement": "Isère", "code_departement": "38", "region": "Auvergne-Rhône-Alpes", "code_region": "84", "Métropole": "Grenoble" }, "geometry": { "type": "Point", "coordinates": [ 5.70628178956329, 45.201151563763503 ] } },
{ "type": "Feature", "properties": { "type_etablissement": "pharmacy", "nom_etablissement": "Pharmacie du Père Soulas", "website": null, "wikidata": null, "commune": "Montpellier", "code_commune": "34172", "departement": "Hérault", "code_departement": "34", "region": "Occitanie", "code_region": "76", "Métropole": "Montpellier" }, "geometry": { "type": "Point", "coordinates": [ 3.85094752210591, 43.624849763305001 ] } },
{ "type": "Feature", "properties": { "type_etablissement": "pharmacy", "nom_etablissement": "Pharmacie des Quatre Saisons", "website": null, "wikidata": null, "commune": "Montpellier", "code_commune": "34172", "departement": "Hérault", "code_departement": "34", "region": "Occitanie", "code_region": "76", "Métropole": "Montpellier" }, "geometry": { "type": "Point", "coordinates": [ 3.81344294781312, 43.641623963211998 ] } },
{ "type": "Feature", "properties": { "type_etablissement": "dentist", "nom_etablissement": "Alain Rideau", "website": null, "wikidata": null, "commune": "Rennes", "code_commune": "35238", "departement": "Ille-et-Vilaine", "code_departement": "35", "region": "Bretagne", "code_region": "53", "Métropole": "Rennes" }, "geometry": { "type": "Point", "coordinates": [ -1.66153758287464, 48.120525859030401 ] } },
{ "type": "Feature", "properties": { "type_etablissement": "pharmacy", "nom_etablissement": "Pharmacie Duprey", "website": null, "wikidata": null, "commune": "Sotteville-lès-Rouen", "code_commune": "76681", "departement": "Seine-Maritime", "code_departement": "76", "region": "Normandie", "code_region": "28", "Métropole": "Rouen" }, "geometry": { "type": "Point", "coordinates": [ 1.0962584296403, 49.416363563428 ] } },
{ "type": "Feature", "properties": { "type_etablissement": "pharmacy", "nom_etablissement": "Pharmacie Crom", "website": "https://pharmaciecrom.fr/", "wikidata": null, "commune": "Saint-Galmier", "code_commune": "42222", "departement": "Loire", "code_departement": "42", "region": "Auvergne-Rhône-Alpes", "code_region": "84", "Métropole": "Saint-Étienne" }, "geometry": { "type": "Point", "coordinates": [ 4.31879895425649, 45.590028871851302 ] } },
{ "type": "Feature", "properties": { "type_etablissement": "doctors", "nom_etablissement": null, "website": null, "wikidata": null, "commune": "Montpellier", "code_commune": "34172", "departement": "Hérault", "code_departement": "34", "region": "Occitanie", "code_region": "76", "Métropole": "Montpellier" }, "geometry": { "type": "Point", "coordinates": [ 3.87964388962979, 43.619216370001098 ] } },
{ "type": "Feature", "properties": { "type_etablissement": "pharmacy", "nom_etablissement": "Pharmacie les Herbes de Saint-Jean", "website": null, "wikidata": null, "commune": "Saint-Jean-de-Védas", "code_commune": "34270", "departement": "Hérault", "code_departement": "34", "region": "Occitanie", "code_region": "76", "Métropole": "Montpellier" }, "geometry": { "type": "Point", "coordinates": [ 3.83117268468186, 43.5761711900725 ] } },
{ "type": "Feature", "properties": { "type_etablissement": "pharmacy", "nom_etablissement": "Pharmacie Robert", "website": null, "wikidata": null, "commune": "Betton", "code_commune": "35024", "departement": "Ille-et-Vilaine", "code_departement": "35", "region": "Bretagne", "code_region": "53", "Métropole": "Rennes" }, "geometry": { "type": "Point", "coordinates": [ -1.63659991219086, 48.180092692123303 ] } },
{ "type": "Feature", "properties": { "type_etablissement": "hospital", "nom_etablissement": "Institut Nazareth", "website": null, "wikidata": null, "commune": "Montpellier", "code_commune": "34172", "departement": "Hérault", "code_departement": "34", "region": "Occitanie", "code_region": "76", "Métropole": "Montpellier" }, "geometry": { "type": "Point", "coordinates": [ 3.88024403389701, 43.625172298939098 ] } },
{ "type": "Feature", "properties": { "type_etablissement": "pharmacy", "nom_etablissement": "Pharmacie Gambetta", "website": null, "wikidata": null, "commune": "Grenoble", "code_commune": "38185", "departement": "Isère", "code_departement": "38", "region": "Auvergne-Rhône-Alpes", "code_region": "84", "Métropole": "Grenoble" }, "geometry": { "type": "Point", "coordinates": [ 5.72756503428246, 45.182429325740003 ] } },
{ "type": "Feature", "properties": { "type_etablissement": "pharmacy", "nom_etablissement": "Pharmacie de la Mandragore", "website": null, "wikidata": null, "commune": "Grenoble", "code_commune": "38185", "departement": "Isère", "code_departement": "38", "region": "Auvergne-Rhône-Alpes", "code_region": "84", "Métropole": "Grenoble" }, "geometry": { "type": "Point", "coordinates": [ 5.72670899051136, 45.189685958412497 ] } },
{ "type": "Feature", "properties": { "type_etablissement": "pharmacy", "nom_etablissement": "Pharmacie de Brie", "website": null, "wikidata": null, "commune": "Brié-et-Angonnes", "code_commune": "38059", "departement": "Isère", "code_departement": "38", "region": "Auvergne-Rhône-Alpes", "code_region": "84", "Métropole": "Grenoble" }, "geometry": { "type": "Point", "coordinates": [ 5.77220554184203, 45.1358270337427 ] } },
{ "type": "Feature", "properties": { "type_etablissement": "doctors", "nom_etablissement": "Masson", "website": null, "wikidata": null, "commune": "Le Verger", "code_commune": "35351", "departement": "Ille-et-Vilaine", "code_departement": "35", "region": "Bretagne", "code_region": "53", "Métropole": "Rennes" }, "geometry": { "type": "Point", "coordinates": [ -1.93344811438504, 48.070151375328898 ] } },
{ "type": "Feature", "properties": { "type_etablissement": "doctors", "nom_etablissement": "Centre Médical", "website": null, "wikidata": null, "commune": "Montpellier", "code_commune": "34172", "departement": "Hérault", "code_departement": "34", "region": "Occitanie", "code_region": "76", "Métropole": "Montpellier" }, "geometry": { "type": "Point", "coordinates": [ 3.8595569939506, 43.605242899220499 ] } },
{ "type": "Feature", "properties": { "type_etablissement": "doctors", "nom_etablissement": "Cabinet Médecine Générale", "website": null, "wikidata": null, "commune": "Bruz", "code_commune": "35047", "departement": "Ille-et-Vilaine", "code_departement": "35", "region": "Bretagne", "code_region": "53", "Métropole": "Rennes" }, "geometry": { "type": "Point", "coordinates": [ -1.73642837898743, 48.023818729156702 ] } },
{ "type": "Feature", "properties": { "type_etablissement": "doctors", "nom_etablissement": "Andre Yves Gueguen", "website": null, "wikidata": null, "commune": "Rennes", "code_commune": "35238", "departement": "Ille-et-Vilaine", "code_departement": "35", "region": "Bretagne", "code_region": "53", "Métropole": "Rennes" }, "geometry": { "type": "Point", "coordinates": [ -1.67781624466599, 48.1166424394711 ] } },
{ "type": "Feature", "properties": { "type_etablissement": "dentist", "nom_etablissement": "Dr Choubrac", "website": null, "wikidata": null, "commune": "Bonsecours", "code_commune": "76103", "departement": "Seine-Maritime", "code_departement": "76", "region": "Normandie", "code_region": "28", "Métropole": "Rouen" }, "geometry": { "type": "Point", "coordinates": [ 1.13120333834198, 49.419880274723504 ] } },
{ "type": "Feature", "properties": { "type_etablissement": "pharmacy", "nom_etablissement": null, "website": null, "wikidata": null, "commune": "Vern-sur-Seiche", "code_commune": "35352", "departement": "Ille-et-Vilaine", "code_departement": "35", "region": "Bretagne", "code_region": "53", "Métropole": "Rennes" }, "geometry": { "type": "Point", "coordinates": [ -1.6063602686547, 48.044667288377198 ] } },
{ "type": "Feature", "properties": { "type_etablissement": "doctors", "nom_etablissement": "Plicque Chantal Et Nogues Isabelle SCM", "website": null, "wikidata": null, "commune": "Betton", "code_commune": "35024", "departement": "Ille-et-Vilaine", "code_departement": "35", "region": "Bretagne", "code_region": "53", "Métropole": "Rennes" }, "geometry": { "type": "Point", "coordinates": [ -1.64528792246827, 48.181759349750301 ] } },
{ "type": "Feature", "properties": { "type_etablissement": "pharmacy", "nom_etablissement": "Pharmacie de Celleneuve", "website": null, "wikidata": null, "commune": "Montpellier", "code_commune": "34172", "departement": "Hérault", "code_departement": "34", "region": "Occitanie", "code_region": "76", "Métropole": "Montpellier" }, "geometry": { "type": "Point", "coordinates": [ 3.83007448772807, 43.614840848906503 ] } },
{ "type": "Feature", "properties": { "type_etablissement": "doctors", "nom_etablissement": "Docteur Bernard Jay", "website": null, "wikidata": null, "commune": "Grenoble", "code_commune": "38185", "departement": "Isère", "code_departement": "38", "region": "Auvergne-Rhône-Alpes", "code_region": "84", "Métropole": "Grenoble" }, "geometry": { "type": "Point", "coordinates": [ 5.70605816038665, 45.1871789311732 ] } },
{ "type": "Feature", "properties": { "type_etablissement": "pharmacy", "nom_etablissement": "Pharmacie Louise Michel", "website": "https://pharmacies.giphar.fr/auvergne-rhone-alpes/isere/grenoble/pharmacie-louise-michel-grenoble-618", "wikidata": "Q3107556", "commune": "Grenoble", "code_commune": "38185", "departement": "Isère", "code_departement": "38", "region": "Auvergne-Rhône-Alpes", "code_region": "84", "Métropole": "Grenoble" }, "geometry": { "type": "Point", "coordinates": [ 5.71263979839654, 45.1680590556632 ] } },
{ "type": "Feature", "properties": { "type_etablissement": "pharmacy", "nom_etablissement": "Pharmacie des Roches Bleues", "website": null, "wikidata": null, "commune": "Seyssinet-Pariset", "code_commune": "38485", "departement": "Isère", "code_departement": "38", "region": "Auvergne-Rhône-Alpes", "code_region": "84", "Métropole": "Grenoble" }, "geometry": { "type": "Point", "coordinates": [ 5.68849337937235, 45.180117932120901 ] } },
{ "type": "Feature", "properties": { "type_etablissement": "pharmacy", "nom_etablissement": "Pharmacie de la Bellangerais", "website": "https://www.mypharmactiv.fr/pharmacie/pharmacie-de-la-bellangerais", "wikidata": null, "commune": "Rennes", "code_commune": "35238", "departement": "Ille-et-Vilaine", "code_departement": "35", "region": "Bretagne", "code_region": "53", "Métropole": "Rennes" }, "geometry": { "type": "Point", "coordinates": [ -1.6680969250221, 48.1361705974847 ] } },
{ "type": "Feature", "properties": { "type_etablissement": "pharmacy", "nom_etablissement": "Pharmacie des Genêts", "website": "https://www.pharmaciepontpean.fr/", "wikidata": null, "commune": "Pont-Péan", "code_commune": "35363", "departement": "Ille-et-Vilaine", "code_departement": "35", "region": "Bretagne", "code_region": "53", "Métropole": "Rennes" }, "geometry": { "type": "Point", "coordinates": [ -1.70336084895857, 48.0131953374365 ] } },
{ "type": "Feature", "properties": { "type_etablissement": "doctors", "nom_etablissement": "Laboratoire d'Analyses Médicales", "website": null, "wikidata": null, "commune": "Montpellier", "code_commune": "34172", "departement": "Hérault", "code_departement": "34", "region": "Occitanie", "code_region": "76", "Métropole": "Montpellier" }, "geometry": { "type": "Point", "coordinates": [ 3.8748133988309, 43.616261330037297 ] } },
{ "type": "Feature", "properties": { "type_etablissement": "doctors", "nom_etablissement": "Jean-Pierre Court", "website": null, "wikidata": null, "commune": "Montpellier", "code_commune": "34172", "departement": "Hérault", "code_departement": "34", "region": "Occitanie", "code_region": "76", "Métropole": "Montpellier" }, "geometry": { "type": "Point", "coordinates": [ 3.89830946598786, 43.608304892268897 ] } },
{ "type": "Feature", "properties": { "type_etablissement": "pharmacy", "nom_etablissement": "Pharmacie de Figuerolles", "website": null, "wikidata": null, "commune": "Montpellier", "code_commune": "34172", "departement": "Hérault", "code_departement": "34", "region": "Occitanie", "code_region": "76", "Métropole": "Montpellier" }, "geometry": { "type": "Point", "coordinates": [ 3.86684782478801, 43.607511545133498 ] } },
{ "type": "Feature", "properties": { "type_etablissement": "pharmacy", "nom_etablissement": "Pharmacie Saint-Bruno", "website": null, "wikidata": null, "commune": "Grenoble", "code_commune": "38185", "departement": "Isère", "code_departement": "38", "region": "Auvergne-Rhône-Alpes", "code_region": "84", "Métropole": "Grenoble" }, "geometry": { "type": "Point", "coordinates": [ 5.714318190688, 45.188430349317102 ] } },
{ "type": "Feature", "properties": { "type_etablissement": "pharmacy", "nom_etablissement": "Pharmacie du Corum", "website": null, "wikidata": null, "commune": "Montpellier", "code_commune": "34172", "departement": "Hérault", "code_departement": "34", "region": "Occitanie", "code_region": "76", "Métropole": "Montpellier" }, "geometry": { "type": "Point", "coordinates": [ 3.87964405726785, 43.6133153425289 ] } },
{ "type": "Feature", "properties": { "type_etablissement": "pharmacy", "nom_etablissement": "Pharmacie de l'Aigle", "website": null, "wikidata": null, "commune": "Grenoble", "code_commune": "38185", "departement": "Isère", "code_departement": "38", "region": "Auvergne-Rhône-Alpes", "code_region": "84", "Métropole": "Grenoble" }, "geometry": { "type": "Point", "coordinates": [ 5.7185491239529, 45.183124185513101 ] } },
{ "type": "Feature", "properties": { "type_etablissement": "pharmacy", "nom_etablissement": "Pharmacie Chrétien", "website": null, "wikidata": "Q1547749", "commune": "Bonsecours", "code_commune": "76103", "departement": "Seine-Maritime", "code_departement": "76", "region": "Normandie", "code_region": "28", "Métropole": "Rouen" }, "geometry": { "type": "Point", "coordinates": [ 1.12675246393781, 49.421827055554601 ] } },
{ "type": "Feature", "properties": { "type_etablissement": "hospital", "nom_etablissement": "Hôpital de Jour MGEN", "website": null, "wikidata": null, "commune": "Rouen", "code_commune": "76540", "departement": "Seine-Maritime", "code_departement": "76", "region": "Normandie", "code_region": "28", "Métropole": "Rouen" }, "geometry": { "type": "Point", "coordinates": [ 1.08904094045565, 49.448474466847699 ] } },
{ "type": "Feature", "properties": { "type_etablissement": "doctors", "nom_etablissement": "Infirmerie", "website": null, "wikidata": null, "commune": "Montpellier", "code_commune": "34172", "departement": "Hérault", "code_departement": "34", "region": "Occitanie", "code_region": "76", "Métropole": "Montpellier" }, "geometry": { "type": "Point", "coordinates": [ 3.87380622934558, 43.639626052771497 ] } },
{ "type": "Feature", "properties": { "type_etablissement": "pharmacy", "nom_etablissement": "Pharmacie des Faïenciers", "website": null, "wikidata": null, "commune": "Rouen", "code_commune": "76540", "departement": "Seine-Maritime", "code_departement": "76", "region": "Normandie", "code_region": "28", "Métropole": "Rouen" }, "geometry": { "type": "Point", "coordinates": [ 1.07605569605926, 49.430121619296997 ] } },
{ "type": "Feature", "properties": { "type_etablissement": "doctors", "nom_etablissement": null, "website": null, "wikidata": null, "commune": "Montpellier", "code_commune": "34172", "departement": "Hérault", "code_departement": "34", "region": "Occitanie", "code_region": "76", "Métropole": "Montpellier" }, "geometry": { "type": "Point", "coordinates": [ 3.85209609429779, 43.600919681201702 ] } },
{ "type": "Feature", "properties": { "type_etablissement": "nursing_home", "nom_etablissement": "Résidence Les Trois Chênes", "website": null, "wikidata": "Q112921857", "commune": "Pacé", "code_commune": "35210", "departement": "Ille-et-Vilaine", "code_departement": "35", "region": "Bretagne", "code_region": "53", "Métropole": "Rennes" }, "geometry": { "type": "Point", "coordinates": [ -1.78262917067516, 48.146789132049101 ] } },
{ "type": "Feature", "properties": { "type_etablissement": "dentist", "nom_etablissement": "Docteur Bonnet Jean-Christophe", "website": null, "wikidata": null, "commune": "Montpellier", "code_commune": "34172", "departement": "Hérault", "code_departement": "34", "region": "Occitanie", "code_region": "76", "Métropole": "Montpellier" }, "geometry": { "type": "Point", "coordinates": [ 3.8890986764095, 43.607867776018402 ] } },
{ "type": "Feature", "properties": { "type_etablissement": "doctors", "nom_etablissement": "Marie-Line Hamon", "website": null, "wikidata": null, "commune": "Rennes", "code_commune": "35238", "departement": "Ille-et-Vilaine", "code_departement": "35", "region": "Bretagne", "code_region": "53", "Métropole": "Rennes" }, "geometry": { "type": "Point", "coordinates": [ -1.65968836739651, 48.110370345145398 ] } },
{ "type": "Feature", "properties": { "type_etablissement": "clinic", "nom_etablissement": null, "website": null, "wikidata": null, "commune": "Rennes", "code_commune": "35238", "departement": "Ille-et-Vilaine", "code_departement": "35", "region": "Bretagne", "code_region": "53", "Métropole": "Rennes" }, "geometry": { "type": "Point", "coordinates": [ -1.65041731818276, 48.088168948747303 ] } },
{ "type": "Feature", "properties": { "type_etablissement": "dentist", "nom_etablissement": "Centre Dentaire Dentosoin", "website": null, "wikidata": null, "commune": "Montpellier", "code_commune": "34172", "departement": "Hérault", "code_departement": "34", "region": "Occitanie", "code_region": "76", "Métropole": "Montpellier" }, "geometry": { "type": "Point", "coordinates": [ 3.87213881734726, 43.594458323502401 ] } },
{ "type": "Feature", "properties": { "type_etablissement": "doctors", "nom_etablissement": "Dr Adeline Brun", "website": null, "wikidata": null, "commune": "Grenoble", "code_commune": "38185", "departement": "Isère", "code_departement": "38", "region": "Auvergne-Rhône-Alpes", "code_region": "84", "Métropole": "Grenoble" }, "geometry": { "type": "Point", "coordinates": [ 5.72275935391696, 45.185743446435801 ] } },
{ "type": "Feature", "properties": { "type_etablissement": "clinic", "nom_etablissement": "Kinés", "website": "https://monrdvkine.fr/masseur-kinesitherapeute/montpellier-34000/michel-sephora", "wikidata": null, "commune": "Montpellier", "code_commune": "34172", "departement": "Hérault", "code_departement": "34", "region": "Occitanie", "code_region": "76", "Métropole": "Montpellier" }, "geometry": { "type": "Point", "coordinates": [ 3.89159229260363, 43.620179785951898 ] } },
{ "type": "Feature", "properties": { "type_etablissement": "dentist", "nom_etablissement": "CT Dents", "website": "https://www.dr-cohen-guedj-sophie.chirurgiens-dentistes.fr/", "wikidata": null, "commune": "Saint-Martin-d'Hères", "code_commune": "38421", "departement": "Isère", "code_departement": "38", "region": "Auvergne-Rhône-Alpes", "code_region": "84", "Métropole": "Grenoble" }, "geometry": { "type": "Point", "coordinates": [ 5.74767514783346, 45.185749481406098 ] } },
{ "type": "Feature", "properties": { "type_etablissement": "doctors", "nom_etablissement": "Dr Clémence Marginédes", "website": "https://www.doctolib.fr/medecin-generaliste/corps-nuds/clemence-marginedes", "wikidata": null, "commune": "Corps-Nuds", "code_commune": "35088", "departement": "Ille-et-Vilaine", "code_departement": "35", "region": "Bretagne", "code_region": "53", "Métropole": "Rennes" }, "geometry": { "type": "Point", "coordinates": [ -1.58460017746398, 47.977464038579001 ] } },
{ "type": "Feature", "properties": { "type_etablissement": "doctors", "nom_etablissement": "Centre Médical 7/7 de Chantepie", "website": "https://www.permanences.fr/PERMANENCE/FR/ACCUEIL-B.wb?REFID=uFUAAAAAAAB0AA", "wikidata": null, "commune": "Chantepie", "code_commune": "35055", "departement": "Ille-et-Vilaine", "code_departement": "35", "region": "Bretagne", "code_region": "53", "Métropole": "Rennes" }, "geometry": { "type": "Point", "coordinates": [ -1.60454030601861, 48.082769324728197 ] } },
{ "type": "Feature", "properties": { "type_etablissement": "doctors", "nom_etablissement": "Pascale DRESCH", "website": null, "wikidata": null, "commune": "Clapiers", "code_commune": "34077", "departement": "Hérault", "code_departement": "34", "region": "Occitanie", "code_region": "76", "Métropole": "Montpellier" }, "geometry": { "type": "Point", "coordinates": [ 3.88573837142727, 43.657475567036599 ] } },
{ "type": "Feature", "properties": { "type_etablissement": "pharmacy", "nom_etablissement": "Pharmacie Py", "website": null, "wikidata": null, "commune": "Firminy", "code_commune": "42095", "departement": "Loire", "code_departement": "42", "region": "Auvergne-Rhône-Alpes", "code_region": "84", "Métropole": "Saint-Étienne" }, "geometry": { "type": "Point", "coordinates": [ 4.28489692194768, 45.3891086178119 ] } },
{ "type": "Feature", "properties": { "type_etablissement": "pharmacy", "nom_etablissement": "Pharmacie de l'Hôtel Dieu", "website": "https://www.pharmacie-hotel-dieu-rennes.fr/", "wikidata": null, "commune": "Rennes", "code_commune": "35238", "departement": "Ille-et-Vilaine", "code_departement": "35", "region": "Bretagne", "code_region": "53", "Métropole": "Rennes" }, "geometry": { "type": "Point", "coordinates": [ -1.68115743890903, 48.118508586393702 ] } },
{ "type": "Feature", "properties": { "type_etablissement": "pharmacy", "nom_etablissement": "Pharmacie Saint-Clément", "website": null, "wikidata": null, "commune": "Montpellier", "code_commune": "34172", "departement": "Hérault", "code_departement": "34", "region": "Occitanie", "code_region": "76", "Métropole": "Montpellier" }, "geometry": { "type": "Point", "coordinates": [ 3.84516878660099, 43.617683990463 ] } },
{ "type": "Feature", "properties": { "type_etablissement": "pharmacy", "nom_etablissement": "Pharmacie de la Feuilletière", "website": null, "wikidata": null, "commune": "Villars", "code_commune": "42330", "departement": "Loire", "code_departement": "42", "region": "Auvergne-Rhône-Alpes", "code_region": "84", "Métropole": "Saint-Étienne" }, "geometry": { "type": "Point", "coordinates": [ 4.36029482320245, 45.469562734518 ] } },
{ "type": "Feature", "properties": { "type_etablissement": "pharmacy", "nom_etablissement": "Pharmacie de Villejean", "website": null, "wikidata": null, "commune": "Rennes", "code_commune": "35238", "departement": "Ille-et-Vilaine", "code_departement": "35", "region": "Bretagne", "code_region": "53", "Métropole": "Rennes" }, "geometry": { "type": "Point", "coordinates": [ -1.70979907260516, 48.121286935838597 ] } },
{ "type": "Feature", "properties": { "type_etablissement": "dentist", "nom_etablissement": "Cabinet Dentaire Murielle Guignier-Leon", "website": null, "wikidata": null, "commune": "Vif", "code_commune": "38545", "departement": "Isère", "code_departement": "38", "region": "Auvergne-Rhône-Alpes", "code_region": "84", "Métropole": "Grenoble" }, "geometry": { "type": "Point", "coordinates": [ 5.66936285884523, 45.055474170426798 ] } },
{ "type": "Feature", "properties": { "type_etablissement": "doctors", "nom_etablissement": "Cabinet médical Jean Mermoz", "website": null, "wikidata": null, "commune": "Rennes", "code_commune": "35238", "departement": "Ille-et-Vilaine", "code_departement": "35", "region": "Bretagne", "code_region": "53", "Métropole": "Rennes" }, "geometry": { "type": "Point", "coordinates": [ -1.68841851399017, 48.097460789334598 ] } },
{ "type": "Feature", "properties": { "type_etablissement": "doctors", "nom_etablissement": "Dr Bénédicte Rouchouse", "website": null, "wikidata": null, "commune": "Saint-Chamond", "code_commune": "42207", "departement": "Loire", "code_departement": "42", "region": "Auvergne-Rhône-Alpes", "code_region": "84", "Métropole": "Saint-Étienne" }, "geometry": { "type": "Point", "coordinates": [ 4.50754759524057, 45.4739987729536 ] } },
{ "type": "Feature", "properties": { "type_etablissement": "pharmacy", "nom_etablissement": "Pharmacie du Verger", "website": "https://pharmacieduverger-rennes.fr/", "wikidata": null, "commune": "Rennes", "code_commune": "35238", "departement": "Ille-et-Vilaine", "code_departement": "35", "region": "Bretagne", "code_region": "53", "Métropole": "Rennes" }, "geometry": { "type": "Point", "coordinates": [ -1.6679397643376, 48.106509556724603 ] } },
{ "type": "Feature", "properties": { "type_etablissement": "pharmacy", "nom_etablissement": "Pharmacie Nguyen", "website": null, "wikidata": null, "commune": "Le Trait", "code_commune": "76709", "departement": "Seine-Maritime", "code_departement": "76", "region": "Normandie", "code_region": "28", "Métropole": "Rouen" }, "geometry": { "type": "Point", "coordinates": [ 0.805638568237271, 49.485633371453602 ] } },
{ "type": "Feature", "properties": { "type_etablissement": "pharmacy", "nom_etablissement": "Pharmacie de la Croix de Pierre", "website": null, "wikidata": null, "commune": "Rouen", "code_commune": "76540", "departement": "Seine-Maritime", "code_departement": "76", "region": "Normandie", "code_region": "28", "Métropole": "Rouen" }, "geometry": { "type": "Point", "coordinates": [ 1.10573391972088, 49.442332962573403 ] } },
{ "type": "Feature", "properties": { "type_etablissement": "doctors", "nom_etablissement": "Anne-Laure de Fonclare", "website": null, "wikidata": null, "commune": "Rennes", "code_commune": "35238", "departement": "Ille-et-Vilaine", "code_departement": "35", "region": "Bretagne", "code_region": "53", "Métropole": "Rennes" }, "geometry": { "type": "Point", "coordinates": [ -1.67432560108938, 48.094876145672103 ] } },
{ "type": "Feature", "properties": { "type_etablissement": "dentist", "nom_etablissement": null, "website": null, "wikidata": null, "commune": "Montgermont", "code_commune": "35189", "departement": "Ille-et-Vilaine", "code_departement": "35", "region": "Bretagne", "code_region": "53", "Métropole": "Rennes" }, "geometry": { "type": "Point", "coordinates": [ -1.72071591475546, 48.155585599805498 ] } },
{ "type": "Feature", "properties": { "type_etablissement": "doctors", "nom_etablissement": "Marion Hurel", "website": null, "wikidata": null, "commune": "Rennes", "code_commune": "35238", "departement": "Ille-et-Vilaine", "code_departement": "35", "region": "Bretagne", "code_region": "53", "Métropole": "Rennes" }, "geometry": { "type": "Point", "coordinates": [ -1.68177216768777, 48.118447817595602 ] } },
{ "type": "Feature", "properties": { "type_etablissement": "doctors", "nom_etablissement": "Pédicure-podologue Stéphanie Gagnaire", "website": null, "wikidata": null, "commune": "Saint-Martin-d'Hères", "code_commune": "38421", "departement": "Isère", "code_departement": "38", "region": "Auvergne-Rhône-Alpes", "code_region": "84", "Métropole": "Grenoble" }, "geometry": { "type": "Point", "coordinates": [ 5.75936689693213, 45.1826204331323 ] } },
{ "type": "Feature", "properties": { "type_etablissement": "pharmacy", "nom_etablissement": "Pharmacie de Fonsala", "website": "https://fonsala.aprium-pharmacie.fr/", "wikidata": null, "commune": "Saint-Chamond", "code_commune": "42207", "departement": "Loire", "code_departement": "42", "region": "Auvergne-Rhône-Alpes", "code_region": "84", "Métropole": "Saint-Étienne" }, "geometry": { "type": "Point", "coordinates": [ 4.5330427463044, 45.474994794507701 ] } },
{ "type": "Feature", "properties": { "type_etablissement": "doctors", "nom_etablissement": "Médecine préventive", "website": null, "wikidata": null, "commune": "Montpellier", "code_commune": "34172", "departement": "Hérault", "code_departement": "34", "region": "Occitanie", "code_region": "76", "Métropole": "Montpellier" }, "geometry": { "type": "Point", "coordinates": [ 3.87066393766486, 43.634136073831002 ] } },
{ "type": "Feature", "properties": { "type_etablissement": "nursing_home", "nom_etablissement": "Établissements d'hébergement pour personnes âgées dépendantes Korian Le Jardin", "website": "https://www.korian.fr/maisons-retraite/normandie/seine-maritime-76/rouen-76100/ehpad-korian-le-jardin", "wikidata": "Q112922857", "commune": "Rouen", "code_commune": "76540", "departement": "Seine-Maritime", "code_departement": "76", "region": "Normandie", "code_region": "28", "Métropole": "Rouen" }, "geometry": { "type": "Point", "coordinates": [ 1.07974214089398, 49.420777725096301 ] } },
{ "type": "Feature", "properties": { "type_etablissement": "pharmacy", "nom_etablissement": "Pharmacie Méridienne", "website": null, "wikidata": null, "commune": "Rouen", "code_commune": "76540", "departement": "Seine-Maritime", "code_departement": "76", "region": "Normandie", "code_region": "28", "Métropole": "Rouen" }, "geometry": { "type": "Point", "coordinates": [ 1.08251286280702, 49.425933517557297 ] } },
{ "type": "Feature", "properties": { "type_etablissement": "dentist", "nom_etablissement": "Le Roux Gilles", "website": null, "wikidata": null, "commune": "Rennes", "code_commune": "35238", "departement": "Ille-et-Vilaine", "code_departement": "35", "region": "Bretagne", "code_region": "53", "Métropole": "Rennes" }, "geometry": { "type": "Point", "coordinates": [ -1.66107506945752, 48.111490837961703 ] } },
{ "type": "Feature", "properties": { "type_etablissement": "pharmacy", "nom_etablissement": "Pharmacie Anne Ferec", "website": null, "wikidata": null, "commune": "Rennes", "code_commune": "35238", "departement": "Ille-et-Vilaine", "code_departement": "35", "region": "Bretagne", "code_region": "53", "Métropole": "Rennes" }, "geometry": { "type": "Point", "coordinates": [ -1.66721967503597, 48.086252256953898 ] } },
{ "type": "Feature", "properties": { "type_etablissement": "dentist", "nom_etablissement": null, "website": null, "wikidata": null, "commune": "Grenoble", "code_commune": "38185", "departement": "Isère", "code_departement": "38", "region": "Auvergne-Rhône-Alpes", "code_region": "84", "Métropole": "Grenoble" }, "geometry": { "type": "Point", "coordinates": [ 5.72963092195764, 45.191675067854597 ] } },
{ "type": "Feature", "properties": { "type_etablissement": "pharmacy", "nom_etablissement": "Pharmacie des Musées", "website": null, "wikidata": null, "commune": "Grenoble", "code_commune": "38185", "departement": "Isère", "code_departement": "38", "region": "Auvergne-Rhône-Alpes", "code_region": "84", "Métropole": "Grenoble" }, "geometry": { "type": "Point", "coordinates": [ 5.73126329760069, 45.192841493500197 ] } },
{ "type": "Feature", "properties": { "type_etablissement": "pharmacy", "nom_etablissement": "Pharmacie de la Vatine", "website": null, "wikidata": null, "commune": "Mont-Saint-Aignan", "code_commune": "76451", "departement": "Seine-Maritime", "code_departement": "76", "region": "Normandie", "code_region": "28", "Métropole": "Rouen" }, "geometry": { "type": "Point", "coordinates": [ 1.09503852745243, 49.470620628498601 ] } },
{ "type": "Feature", "properties": { "type_etablissement": "doctors", "nom_etablissement": "Domène Santé", "website": null, "wikidata": null, "commune": "Domène", "code_commune": "38150", "departement": "Isère", "code_departement": "38", "region": "Auvergne-Rhône-Alpes", "code_region": "84", "Métropole": "Grenoble" }, "geometry": { "type": "Point", "coordinates": [ 5.83844504041329, 45.207917855100298 ] } },
{ "type": "Feature", "properties": { "type_etablissement": "pharmacy", "nom_etablissement": "Pharmacie Nouvelle", "website": null, "wikidata": null, "commune": "Saint-Martin-le-Vinoux", "code_commune": "38423", "departement": "Isère", "code_departement": "38", "region": "Auvergne-Rhône-Alpes", "code_region": "84", "Métropole": "Grenoble" }, "geometry": { "type": "Point", "coordinates": [ 5.6946028647765, 45.216003877091801 ] } },
{ "type": "Feature", "properties": { "type_etablissement": "pharmacy", "nom_etablissement": "Pharmacie de la Lombardie", "website": null, "wikidata": null, "commune": "Rouen", "code_commune": "76540", "departement": "Seine-Maritime", "code_departement": "76", "region": "Normandie", "code_region": "28", "Métropole": "Rouen" }, "geometry": { "type": "Point", "coordinates": [ 1.13885132207361, 49.456503324259501 ] } },
{ "type": "Feature", "properties": { "type_etablissement": "nursing_home", "nom_etablissement": "Établissement d'hébergement pour personnes âgées dépendantes Centre Durécu-Lavoisier", "website": null, "wikidata": "Q112921299", "commune": "Darnétal", "code_commune": "76212", "departement": "Seine-Maritime", "code_departement": "76", "region": "Normandie", "code_region": "28", "Métropole": "Rouen" }, "geometry": { "type": "Point", "coordinates": [ 1.14907573520273, 49.445138050289501 ] } },
{ "type": "Feature", "properties": { "type_etablissement": "pharmacy", "nom_etablissement": "Pharmacie du Creux", "website": null, "wikidata": null, "commune": "Saint-Chamond", "code_commune": "42207", "departement": "Loire", "code_departement": "42", "region": "Auvergne-Rhône-Alpes", "code_region": "84", "Métropole": "Saint-Étienne" }, "geometry": { "type": "Point", "coordinates": [ 4.50497284222371, 45.457718183324502 ] } },
{ "type": "Feature", "properties": { "type_etablissement": "doctors", "nom_etablissement": "Cabinet Proctologue", "website": null, "wikidata": null, "commune": "Montpellier", "code_commune": "34172", "departement": "Hérault", "code_departement": "34", "region": "Occitanie", "code_region": "76", "Métropole": "Montpellier" }, "geometry": { "type": "Point", "coordinates": [ 3.84488044913184, 43.622561419919599 ] } },
{ "type": "Feature", "properties": { "type_etablissement": "pharmacy", "nom_etablissement": "Pharmacie du Moulin Gillier", "website": null, "wikidata": null, "commune": "Sorbiers", "code_commune": "42302", "departement": "Loire", "code_departement": "42", "region": "Auvergne-Rhône-Alpes", "code_region": "84", "Métropole": "Saint-Étienne" }, "geometry": { "type": "Point", "coordinates": [ 4.44323643731337, 45.480716784528099 ] } },
{ "type": "Feature", "properties": { "type_etablissement": "pharmacy", "nom_etablissement": "Pharmacie Soleil", "website": null, "wikidata": null, "commune": "La Talaudière", "code_commune": "42305", "departement": "Loire", "code_departement": "42", "region": "Auvergne-Rhône-Alpes", "code_region": "84", "Métropole": "Saint-Étienne" }, "geometry": { "type": "Point", "coordinates": [ 4.43335467638602, 45.480800184464698 ] } },
{ "type": "Feature", "properties": { "type_etablissement": "nursing_home", "nom_etablissement": "EHPAD Pique-Pierre", "website": null, "wikidata": "Q112963482", "commune": "Saint-Martin-le-Vinoux", "code_commune": "38423", "departement": "Isère", "code_departement": "38", "region": "Auvergne-Rhône-Alpes", "code_region": "84", "Métropole": "Grenoble" }, "geometry": { "type": "Point", "coordinates": [ 5.70810235334239, 45.207015736420502 ] } },
{ "type": "Feature", "properties": { "type_etablissement": "doctors", "nom_etablissement": "La Maison Papillon", "website": null, "wikidata": null, "commune": "Montpellier", "code_commune": "34172", "departement": "Hérault", "code_departement": "34", "region": "Occitanie", "code_region": "76", "Métropole": "Montpellier" }, "geometry": { "type": "Point", "coordinates": [ 3.870191533602, 43.615242425887502 ] } },
{ "type": "Feature", "properties": { "type_etablissement": "pharmacy", "nom_etablissement": "Pharmacie de la Croix Rouge", "website": null, "wikidata": null, "commune": "Saint-Martin-d'Hères", "code_commune": "38421", "departement": "Isère", "code_departement": "38", "region": "Auvergne-Rhône-Alpes", "code_region": "84", "Métropole": "Grenoble" }, "geometry": { "type": "Point", "coordinates": [ 5.7494377782518, 45.185077671866701 ] } },
{ "type": "Feature", "properties": { "type_etablissement": "dentist", "nom_etablissement": null, "website": null, "wikidata": null, "commune": "Rouen", "code_commune": "76540", "departement": "Seine-Maritime", "code_departement": "76", "region": "Normandie", "code_region": "28", "Métropole": "Rouen" }, "geometry": { "type": "Point", "coordinates": [ 1.08463557978573, 49.446318976627602 ] } },
{ "type": "Feature", "properties": { "type_etablissement": "doctors", "nom_etablissement": "Cabinet Médical", "website": null, "wikidata": null, "commune": "Chantepie", "code_commune": "35055", "departement": "Ille-et-Vilaine", "code_departement": "35", "region": "Bretagne", "code_region": "53", "Métropole": "Rennes" }, "geometry": { "type": "Point", "coordinates": [ -1.61751197173189, 48.088696587557401 ] } },
{ "type": "Feature", "properties": { "type_etablissement": "doctors", "nom_etablissement": null, "website": null, "wikidata": null, "commune": "Le Rheu", "code_commune": "35240", "departement": "Ille-et-Vilaine", "code_departement": "35", "region": "Bretagne", "code_region": "53", "Métropole": "Rennes" }, "geometry": { "type": "Point", "coordinates": [ -1.79030733640582, 48.099771093306401 ] } },
{ "type": "Feature", "properties": { "type_etablissement": "doctors", "nom_etablissement": "Cabinet de pédiatrie", "website": null, "wikidata": null, "commune": "Montpellier", "code_commune": "34172", "departement": "Hérault", "code_departement": "34", "region": "Occitanie", "code_region": "76", "Métropole": "Montpellier" }, "geometry": { "type": "Point", "coordinates": [ 3.87573716837966, 43.6274067466871 ] } },
{ "type": "Feature", "properties": { "type_etablissement": "dentist", "nom_etablissement": null, "website": null, "wikidata": null, "commune": "Yainville", "code_commune": "76750", "departement": "Seine-Maritime", "code_departement": "76", "region": "Normandie", "code_region": "28", "Métropole": "Rouen" }, "geometry": { "type": "Point", "coordinates": [ 0.829155673971201, 49.454764079351001 ] } },
{ "type": "Feature", "properties": { "type_etablissement": "doctors", "nom_etablissement": "Maison médicale", "website": null, "wikidata": null, "commune": "Juvignac", "code_commune": "34123", "departement": "Hérault", "code_departement": "34", "region": "Occitanie", "code_region": "76", "Métropole": "Montpellier" }, "geometry": { "type": "Point", "coordinates": [ 3.80927278334624, 43.616028480767199 ] } },
{ "type": "Feature", "properties": { "type_etablissement": "dentist", "nom_etablissement": "Docteur Picard", "website": null, "wikidata": null, "commune": "Rouen", "code_commune": "76540", "departement": "Seine-Maritime", "code_departement": "76", "region": "Normandie", "code_region": "28", "Métropole": "Rouen" }, "geometry": { "type": "Point", "coordinates": [ 1.0914318783359, 49.443790659354299 ] } },
{ "type": "Feature", "properties": { "type_etablissement": "dentist", "nom_etablissement": "Docteur Jean-Baptiste Kerbrat", "website": null, "wikidata": null, "commune": "Rouen", "code_commune": "76540", "departement": "Seine-Maritime", "code_departement": "76", "region": "Normandie", "code_region": "28", "Métropole": "Rouen" }, "geometry": { "type": "Point", "coordinates": [ 1.09132869710783, 49.443620841996001 ] } },
{ "type": "Feature", "properties": { "type_etablissement": "doctors", "nom_etablissement": "Korporis Pôle Santé", "website": null, "wikidata": null, "commune": "Baillargues", "code_commune": "34022", "departement": "Hérault", "code_departement": "34", "region": "Occitanie", "code_region": "76", "Métropole": "Montpellier" }, "geometry": { "type": "Point", "coordinates": [ 4.01825944572371, 43.661651850292799 ] } },
{ "type": "Feature", "properties": { "type_etablissement": "doctors", "nom_etablissement": "Docteur Nakache", "website": null, "wikidata": null, "commune": "Pérols", "code_commune": "34198", "departement": "Hérault", "code_departement": "34", "region": "Occitanie", "code_region": "76", "Métropole": "Montpellier" }, "geometry": { "type": "Point", "coordinates": [ 3.95565459182558, 43.562811358423403 ] } },
{ "type": "Feature", "properties": { "type_etablissement": "doctors", "nom_etablissement": "Point Vision", "website": null, "wikidata": "Q131370559", "commune": "Tourville-la-Rivière", "code_commune": "76705", "departement": "Seine-Maritime", "code_departement": "76", "region": "Normandie", "code_region": "28", "Métropole": "Rouen" }, "geometry": { "type": "Point", "coordinates": [ 1.10133434256412, 49.332388376836697 ] } },
{ "type": "Feature", "properties": { "type_etablissement": "dentist", "nom_etablissement": "Corcos et Sabatier", "website": null, "wikidata": null, "commune": "Castelnau-le-Lez", "code_commune": "34057", "departement": "Hérault", "code_departement": "34", "region": "Occitanie", "code_region": "76", "Métropole": "Montpellier" }, "geometry": { "type": "Point", "coordinates": [ 3.89659679171243, 43.633002421426703 ] } },
{ "type": "Feature", "properties": { "type_etablissement": "doctors", "nom_etablissement": "Centre Mediksanté", "website": null, "wikidata": null, "commune": "Rouen", "code_commune": "76540", "departement": "Seine-Maritime", "code_departement": "76", "region": "Normandie", "code_region": "28", "Métropole": "Rouen" }, "geometry": { "type": "Point", "coordinates": [ 1.09567856957875, 49.439170051410898 ] } },
{ "type": "Feature", "properties": { "type_etablissement": "pharmacy", "nom_etablissement": "Pharmacie des Pins", "website": "https://pharmaciedespins-montpellier.mesoigner.fr/", "wikidata": null, "commune": "Montpellier", "code_commune": "34172", "departement": "Hérault", "code_departement": "34", "region": "Occitanie", "code_region": "76", "Métropole": "Montpellier" }, "geometry": { "type": "Point", "coordinates": [ 3.84654492746404, 43.618469793885502 ] } },
{ "type": "Feature", "properties": { "type_etablissement": "doctors", "nom_etablissement": null, "website": null, "wikidata": null, "commune": "Mont-Saint-Aignan", "code_commune": "76451", "departement": "Seine-Maritime", "code_departement": "76", "region": "Normandie", "code_region": "28", "Métropole": "Rouen" }, "geometry": { "type": "Point", "coordinates": [ 1.08151332085359, 49.470451397873497 ] } },
{ "type": "Feature", "properties": { "type_etablissement": "pharmacy", "nom_etablissement": "Pharmacie Rabetaliana", "website": null, "wikidata": null, "commune": "Malaunay", "code_commune": "76402", "departement": "Seine-Maritime", "code_departement": "76", "region": "Normandie", "code_region": "28", "Métropole": "Rouen" }, "geometry": { "type": "Point", "coordinates": [ 1.04051047545229, 49.522891685431198 ] } },
{ "type": "Feature", "properties": { "type_etablissement": "doctors", "nom_etablissement": "Hélène Campion, Ève Mercier", "website": null, "wikidata": null, "commune": "Rennes", "code_commune": "35238", "departement": "Ille-et-Vilaine", "code_departement": "35", "region": "Bretagne", "code_region": "53", "Métropole": "Rennes" }, "geometry": { "type": "Point", "coordinates": [ -1.66088773392161, 48.119226999314698 ] } },
{ "type": "Feature", "properties": { "type_etablissement": "dentist", "nom_etablissement": "Yachar Benamran", "website": null, "wikidata": null, "commune": "L'Horme", "code_commune": "42110", "departement": "Loire", "code_departement": "42", "region": "Auvergne-Rhône-Alpes", "code_region": "84", "Métropole": "Saint-Étienne" }, "geometry": { "type": "Point", "coordinates": [ 4.54558752168904, 45.486719316847697 ] } },
{ "type": "Feature", "properties": { "type_etablissement": "pharmacy", "nom_etablissement": "Pharmacie des Alpes", "website": null, "wikidata": null, "commune": "Saint-Martin-d'Hères", "code_commune": "38421", "departement": "Isère", "code_departement": "38", "region": "Auvergne-Rhône-Alpes", "code_region": "84", "Métropole": "Grenoble" }, "geometry": { "type": "Point", "coordinates": [ 5.75488316546751, 45.184129678617801 ] } },
{ "type": "Feature", "properties": { "type_etablissement": "pharmacy", "nom_etablissement": "Pharmacie de la Fontaine", "website": null, "wikidata": null, "commune": "Lorette", "code_commune": "42123", "departement": "Loire", "code_departement": "42", "region": "Auvergne-Rhône-Alpes", "code_region": "84", "Métropole": "Saint-Étienne" }, "geometry": { "type": "Point", "coordinates": [ 4.5814227561458, 45.512985938279698 ] } },
{ "type": "Feature", "properties": { "type_etablissement": "doctors", "nom_etablissement": null, "website": null, "wikidata": null, "commune": "Fontaine", "code_commune": "38169", "departement": "Isère", "code_departement": "38", "region": "Auvergne-Rhône-Alpes", "code_region": "84", "Métropole": "Grenoble" }, "geometry": { "type": "Point", "coordinates": [ 5.68093063959597, 45.197379372059302 ] } },
{ "type": "Feature", "properties": { "type_etablissement": "pharmacy", "nom_etablissement": "Pharmacie De La Place", "website": "https://www.pharmaciedelaplace-gieres.fr/", "wikidata": null, "commune": "Gières", "code_commune": "38179", "departement": "Isère", "code_departement": "38", "region": "Auvergne-Rhône-Alpes", "code_region": "84", "Métropole": "Grenoble" }, "geometry": { "type": "Point", "coordinates": [ 5.79228003230452, 45.182464697371401 ] } },
{ "type": "Feature", "properties": { "type_etablissement": "doctors", "nom_etablissement": "Kinésithérapeutes", "website": null, "wikidata": null, "commune": "Montpellier", "code_commune": "34172", "departement": "Hérault", "code_departement": "34", "region": "Occitanie", "code_region": "76", "Métropole": "Montpellier" }, "geometry": { "type": "Point", "coordinates": [ 3.83122096444416, 43.634383088517502 ] } },
{ "type": "Feature", "properties": { "type_etablissement": "nursing_home", "nom_etablissement": "Les Roseraies", "website": null, "wikidata": "Q112984201", "commune": "Rennes", "code_commune": "35238", "departement": "Ille-et-Vilaine", "code_departement": "35", "region": "Bretagne", "code_region": "53", "Métropole": "Rennes" }, "geometry": { "type": "Point", "coordinates": [ -1.66007224589401, 48.102767233172798 ] } },
{ "type": "Feature", "properties": { "type_etablissement": "clinic", "nom_etablissement": "Centre médico-psychologique pour adulte - CMPA Saint-Exupéry", "website": null, "wikidata": null, "commune": "Rennes", "code_commune": "35238", "departement": "Ille-et-Vilaine", "code_departement": "35", "region": "Bretagne", "code_region": "53", "Métropole": "Rennes" }, "geometry": { "type": "Point", "coordinates": [ -1.66167487844862, 48.1236731798531 ] } },
{ "type": "Feature", "properties": { "type_etablissement": "dentist", "nom_etablissement": "Pascale Etrillard", "website": null, "wikidata": null, "commune": "Cesson-Sévigné", "code_commune": "35051", "departement": "Ille-et-Vilaine", "code_departement": "35", "region": "Bretagne", "code_region": "53", "Métropole": "Rennes" }, "geometry": { "type": "Point", "coordinates": [ -1.60405775985291, 48.117144599290199 ] } },
{ "type": "Feature", "properties": { "type_etablissement": "doctors", "nom_etablissement": "Office Santé Hôtel-Dieu", "website": "https://www.officesantehoteldieu.fr/", "wikidata": null, "commune": "Rennes", "code_commune": "35238", "departement": "Ille-et-Vilaine", "code_departement": "35", "region": "Bretagne", "code_region": "53", "Métropole": "Rennes" }, "geometry": { "type": "Point", "coordinates": [ -1.67986451140077, 48.117539425640999 ] } },
{ "type": "Feature", "properties": { "type_etablissement": "nursing_home", "nom_etablissement": "EHPAD Saint-Bruno", "website": null, "wikidata": "Q112923642", "commune": "Grenoble", "code_commune": "38185", "departement": "Isère", "code_departement": "38", "region": "Auvergne-Rhône-Alpes", "code_region": "84", "Métropole": "Grenoble" }, "geometry": { "type": "Point", "coordinates": [ 5.71339377427021, 45.186606660229799 ] } },
{ "type": "Feature", "properties": { "type_etablissement": "hospital", "nom_etablissement": "Centre hospitalier du Rouvray", "website": "https://www.ch-lerouvray.fr", "wikidata": null, "commune": "Sotteville-lès-Rouen", "code_commune": "76681", "departement": "Seine-Maritime", "code_departement": "76", "region": "Normandie", "code_region": "28", "Métropole": "Rouen" }, "geometry": { "type": "Point", "coordinates": [ 1.0943173166022, 49.399000858589602 ] } },
{ "type": "Feature", "properties": { "type_etablissement": "doctors", "nom_etablissement": "Cabinet Médical", "website": "https://www.cabinetmedical-lemalissard.fr", "wikidata": null, "commune": "Eybens", "code_commune": "38158", "departement": "Isère", "code_departement": "38", "region": "Auvergne-Rhône-Alpes", "code_region": "84", "Métropole": "Grenoble" }, "geometry": { "type": "Point", "coordinates": [ 5.74594705085616, 45.160774678891201 ] } },
{ "type": "Feature", "properties": { "type_etablissement": "doctors", "nom_etablissement": "Docteur Nathalie Ferigo", "website": null, "wikidata": null, "commune": "Saint-Priest-en-Jarez", "code_commune": "42275", "departement": "Loire", "code_departement": "42", "region": "Auvergne-Rhône-Alpes", "code_region": "84", "Métropole": "Saint-Étienne" }, "geometry": { "type": "Point", "coordinates": [ 4.37957403869186, 45.465930352958701 ] } },
{ "type": "Feature", "properties": { "type_etablissement": "nursing_home", "nom_etablissement": "L'Adagio", "website": null, "wikidata": "Q112984211", "commune": "Acigné", "code_commune": "35001", "departement": "Ille-et-Vilaine", "code_departement": "35", "region": "Bretagne", "code_region": "53", "Métropole": "Rennes" }, "geometry": { "type": "Point", "coordinates": [ -1.52800709935094, 48.141162449050398 ] } },
{ "type": "Feature", "properties": { "type_etablissement": "pharmacy", "nom_etablissement": "Pharmacie du Château d'Eau", "website": null, "wikidata": null, "commune": "Quévreville-la-Poterie", "code_commune": "76514", "departement": "Seine-Maritime", "code_departement": "76", "region": "Normandie", "code_region": "28", "Métropole": "Rouen" }, "geometry": { "type": "Point", "coordinates": [ 1.18328625287071, 49.355763503132103 ] } },
{ "type": "Feature", "properties": { "type_etablissement": "pharmacy", "nom_etablissement": "Pharmacie Occitane", "website": "https://www.pharmacie-occitane-vendargues.fr", "wikidata": null, "commune": "Vendargues", "code_commune": "34327", "departement": "Hérault", "code_departement": "34", "region": "Occitanie", "code_region": "76", "Métropole": "Montpellier" }, "geometry": { "type": "Point", "coordinates": [ 3.97531291630794, 43.652991225446897 ] } },
{ "type": "Feature", "properties": { "type_etablissement": "nursing_home", "nom_etablissement": "Établissement d'hébergement pour personnes âgées dépendantes La Pleïade", "website": null, "wikidata": "Q112991317", "commune": "Rouen", "code_commune": "76540", "departement": "Seine-Maritime", "code_departement": "76", "region": "Normandie", "code_region": "28", "Métropole": "Rouen" }, "geometry": { "type": "Point", "coordinates": [ 1.08696869109705, 49.4298133288098 ] } },
{ "type": "Feature", "properties": { "type_etablissement": "dentist", "nom_etablissement": "So Clinic", "website": "https://www.so-clinic.fr/centres/rennes", "wikidata": null, "commune": "Rennes", "code_commune": "35238", "departement": "Ille-et-Vilaine", "code_departement": "35", "region": "Bretagne", "code_region": "53", "Métropole": "Rennes" }, "geometry": { "type": "Point", "coordinates": [ -1.68863165603419, 48.112533897170302 ] } },
{ "type": "Feature", "properties": { "type_etablissement": "nursing_home", "nom_etablissement": null, "website": null, "wikidata": null, "commune": "Chartres-de-Bretagne", "code_commune": "35066", "departement": "Ille-et-Vilaine", "code_departement": "35", "region": "Bretagne", "code_region": "53", "Métropole": "Rennes" }, "geometry": { "type": "Point", "coordinates": [ -1.70788582256663, 48.042712805310501 ] } },
{ "type": "Feature", "properties": { "type_etablissement": "dentist", "nom_etablissement": "Centre Dentaire Mutualiste", "website": "http://www.centres-sante-mutualistes.fr", "wikidata": null, "commune": "Rouen", "code_commune": "76540", "departement": "Seine-Maritime", "code_departement": "76", "region": "Normandie", "code_region": "28", "Métropole": "Rouen" }, "geometry": { "type": "Point", "coordinates": [ 1.08532884699719, 49.4341014307428 ] } },
{ "type": "Feature", "properties": { "type_etablissement": "nursing_home", "nom_etablissement": "L'oasis", "website": null, "wikidata": "Q112997656", "commune": "Le Chambon-Feugerolles", "code_commune": "42044", "departement": "Loire", "code_departement": "42", "region": "Auvergne-Rhône-Alpes", "code_region": "84", "Métropole": "Saint-Étienne" }, "geometry": { "type": "Point", "coordinates": [ 4.34265879601119, 45.400532816561302 ] } },
{ "type": "Feature", "properties": { "type_etablissement": "dentist", "nom_etablissement": "Hervé Guillou", "website": null, "wikidata": null, "commune": "Rennes", "code_commune": "35238", "departement": "Ille-et-Vilaine", "code_departement": "35", "region": "Bretagne", "code_region": "53", "Métropole": "Rennes" }, "geometry": { "type": "Point", "coordinates": [ -1.66309007898045, 48.121739977705097 ] } },
{ "type": "Feature", "properties": { "type_etablissement": "doctors", "nom_etablissement": "Docteur Bruno Dolidon", "website": "https://www.doctolib.fr/medecin-generaliste/grenoble/bruno-dolidon", "wikidata": null, "commune": "Grenoble", "code_commune": "38185", "departement": "Isère", "code_departement": "38", "region": "Auvergne-Rhône-Alpes", "code_region": "84", "Métropole": "Grenoble" }, "geometry": { "type": "Point", "coordinates": [ 5.72576217072887, 45.178174923146202 ] } },
{ "type": "Feature", "properties": { "type_etablissement": "dentist", "nom_etablissement": "Julie Scibilia", "website": null, "wikidata": null, "commune": "Montpellier", "code_commune": "34172", "departement": "Hérault", "code_departement": "34", "region": "Occitanie", "code_region": "76", "Métropole": "Montpellier" }, "geometry": { "type": "Point", "coordinates": [ 3.89845413763663, 43.6134391432388 ] } },
{ "type": "Feature", "properties": { "type_etablissement": "pharmacy", "nom_etablissement": "Pharmacie du Devois", "website": null, "wikidata": null, "commune": "Castelnau-le-Lez", "code_commune": "34057", "departement": "Hérault", "code_departement": "34", "region": "Occitanie", "code_region": "76", "Métropole": "Montpellier" }, "geometry": { "type": "Point", "coordinates": [ 3.92391224068845, 43.640870765392798 ] } },
{ "type": "Feature", "properties": { "type_etablissement": "pharmacy", "nom_etablissement": "Pharmacie de l'Europe", "website": null, "wikidata": null, "commune": "Rouen", "code_commune": "76540", "departement": "Seine-Maritime", "code_departement": "76", "region": "Normandie", "code_region": "28", "Métropole": "Rouen" }, "geometry": { "type": "Point", "coordinates": [ 1.08722801861825, 49.426472976845602 ] } },
{ "type": "Feature", "properties": { "type_etablissement": "doctors", "nom_etablissement": "Kiné", "website": null, "wikidata": null, "commune": "Juvignac", "code_commune": "34123", "departement": "Hérault", "code_departement": "34", "region": "Occitanie", "code_region": "76", "Métropole": "Montpellier" }, "geometry": { "type": "Point", "coordinates": [ 3.81152047450124, 43.613585323630097 ] } },
{ "type": "Feature", "properties": { "type_etablissement": "doctors", "nom_etablissement": "Dr Olivier Foulatier", "website": "https://www.pomme-obesite.fr/", "wikidata": null, "commune": "Rouen", "code_commune": "76540", "departement": "Seine-Maritime", "code_departement": "76", "region": "Normandie", "code_region": "28", "Métropole": "Rouen" }, "geometry": { "type": "Point", "coordinates": [ 1.09633344767371, 49.428121948656901 ] } },
{ "type": "Feature", "properties": { "type_etablissement": "dentist", "nom_etablissement": "David Thomas", "website": null, "wikidata": null, "commune": "Rennes", "code_commune": "35238", "departement": "Ille-et-Vilaine", "code_departement": "35", "region": "Bretagne", "code_region": "53", "Métropole": "Rennes" }, "geometry": { "type": "Point", "coordinates": [ -1.69038390264629, 48.093980790774999 ] } },
{ "type": "Feature", "properties": { "type_etablissement": "doctors", "nom_etablissement": "Audioprothésiste - Audika", "website": "https://www.audika.fr/centres/herault/audioprothesiste-montpellier-audika", "wikidata": null, "commune": "Montpellier", "code_commune": "34172", "departement": "Hérault", "code_departement": "34", "region": "Occitanie", "code_region": "76", "Métropole": "Montpellier" }, "geometry": { "type": "Point", "coordinates": [ 3.86698813784713, 43.612516798613598 ] } },
{ "type": "Feature", "properties": { "type_etablissement": "dentist", "nom_etablissement": null, "website": null, "wikidata": null, "commune": "Rennes", "code_commune": "35238", "departement": "Ille-et-Vilaine", "code_departement": "35", "region": "Bretagne", "code_region": "53", "Métropole": "Rennes" }, "geometry": { "type": "Point", "coordinates": [ -1.65748577088056, 48.115393787355401 ] } },
{ "type": "Feature", "properties": { "type_etablissement": "doctors", "nom_etablissement": "Maison médicale Asclepios", "website": null, "wikidata": null, "commune": "Rennes", "code_commune": "35238", "departement": "Ille-et-Vilaine", "code_departement": "35", "region": "Bretagne", "code_region": "53", "Métropole": "Rennes" }, "geometry": { "type": "Point", "coordinates": [ -1.71235605598727, 48.121186436819499 ] } },
{ "type": "Feature", "properties": { "type_etablissement": "doctors", "nom_etablissement": "Laetitia Boggetto-Graham Cardiologue", "website": null, "wikidata": null, "commune": "Saint-Martin-d'Hères", "code_commune": "38421", "departement": "Isère", "code_departement": "38", "region": "Auvergne-Rhône-Alpes", "code_region": "84", "Métropole": "Grenoble" }, "geometry": { "type": "Point", "coordinates": [ 5.75894277263154, 45.182367886389699 ] } },
{ "type": "Feature", "properties": { "type_etablissement": "doctors", "nom_etablissement": "Christophe Giraudi Ostéopathe", "website": null, "wikidata": null, "commune": "Saint-Martin-d'Hères", "code_commune": "38421", "departement": "Isère", "code_departement": "38", "region": "Auvergne-Rhône-Alpes", "code_region": "84", "Métropole": "Grenoble" }, "geometry": { "type": "Point", "coordinates": [ 5.7589434431838, 45.182384817834098 ] } },
{ "type": "Feature", "properties": { "type_etablissement": "doctors", "nom_etablissement": "Dr Marc Métay", "website": null, "wikidata": null, "commune": "Cesson-Sévigné", "code_commune": "35051", "departement": "Ille-et-Vilaine", "code_departement": "35", "region": "Bretagne", "code_region": "53", "Métropole": "Rennes" }, "geometry": { "type": "Point", "coordinates": [ -1.60531051910124, 48.117761926459004 ] } },
{ "type": "Feature", "properties": { "type_etablissement": "doctors", "nom_etablissement": "C. Burgat", "website": null, "wikidata": null, "commune": "Montpellier", "code_commune": "34172", "departement": "Hérault", "code_departement": "34", "region": "Occitanie", "code_region": "76", "Métropole": "Montpellier" }, "geometry": { "type": "Point", "coordinates": [ 3.85207907903435, 43.601221094439801 ] } },
{ "type": "Feature", "properties": { "type_etablissement": "doctors", "nom_etablissement": "Cabinet médical", "website": null, "wikidata": null, "commune": "Saint-Aubin-lès-Elbeuf", "code_commune": "76561", "departement": "Seine-Maritime", "code_departement": "76", "region": "Normandie", "code_region": "28", "Métropole": "Rouen" }, "geometry": { "type": "Point", "coordinates": [ 1.00947186890562, 49.301952596766299 ] } },
{ "type": "Feature", "properties": { "type_etablissement": "hospital", "nom_etablissement": "Clinique Saint-Antoine", "website": null, "wikidata": null, "commune": "Bois-Guillaume", "code_commune": "76108", "departement": "Seine-Maritime", "code_departement": "76", "region": "Normandie", "code_region": "28", "Métropole": "Rouen" }, "geometry": { "type": "Point", "coordinates": [ 1.10715933453406, 49.457656427159897 ] } },
{ "type": "Feature", "properties": { "type_etablissement": "nursing_home", "nom_etablissement": "Établissement pour personnes âgées dépendantes Les Jonquilles", "website": null, "wikidata": "Q112975130", "commune": "Tourville-la-Rivière", "code_commune": "76705", "departement": "Seine-Maritime", "code_departement": "76", "region": "Normandie", "code_region": "28", "Métropole": "Rouen" }, "geometry": { "type": "Point", "coordinates": [ 1.10773318757465, 49.328425662622202 ] } },
{ "type": "Feature", "properties": { "type_etablissement": "pharmacy", "nom_etablissement": "Pharmacie des Deux Cours", "website": null, "wikidata": null, "commune": "Grenoble", "code_commune": "38185", "departement": "Isère", "code_departement": "38", "region": "Auvergne-Rhône-Alpes", "code_region": "84", "Métropole": "Grenoble" }, "geometry": { "type": "Point", "coordinates": [ 5.71942712831031, 45.1881381561724 ] } },
{ "type": "Feature", "properties": { "type_etablissement": "dentist", "nom_etablissement": "Dentiste Cuynat", "website": null, "wikidata": null, "commune": "Eybens", "code_commune": "38158", "departement": "Isère", "code_departement": "38", "region": "Auvergne-Rhône-Alpes", "code_region": "84", "Métropole": "Grenoble" }, "geometry": { "type": "Point", "coordinates": [ 5.74885674472381, 45.152150957811202 ] } },
{ "type": "Feature", "properties": { "type_etablissement": "pharmacy", "nom_etablissement": "Pharmacie de Grabels", "website": null, "wikidata": null, "commune": "Grabels", "code_commune": "34116", "departement": "Hérault", "code_departement": "34", "region": "Occitanie", "code_region": "76", "Métropole": "Montpellier" }, "geometry": { "type": "Point", "coordinates": [ 3.80439116293797, 43.646979580244697 ] } },
{ "type": "Feature", "properties": { "type_etablissement": "pharmacy", "nom_etablissement": "Pharmacie de la Fontaine", "website": null, "wikidata": null, "commune": "Grenoble", "code_commune": "38185", "departement": "Isère", "code_departement": "38", "region": "Auvergne-Rhône-Alpes", "code_region": "84", "Métropole": "Grenoble" }, "geometry": { "type": "Point", "coordinates": [ 5.73060263599254, 45.192299938736198 ] } },
{ "type": "Feature", "properties": { "type_etablissement": "doctors", "nom_etablissement": "Cabinet Médecine Générale", "website": null, "wikidata": null, "commune": "Bruz", "code_commune": "35047", "departement": "Ille-et-Vilaine", "code_departement": "35", "region": "Bretagne", "code_region": "53", "Métropole": "Rennes" }, "geometry": { "type": "Point", "coordinates": [ -1.74049787679721, 48.025074673528202 ] } },
{ "type": "Feature", "properties": { "type_etablissement": "hospital", "nom_etablissement": "Clinique du Mas de Rochet", "website": null, "wikidata": null, "commune": "Castelnau-le-Lez", "code_commune": "34057", "departement": "Hérault", "code_departement": "34", "region": "Occitanie", "code_region": "76", "Métropole": "Montpellier" }, "geometry": { "type": "Point", "coordinates": [ 3.90776423333165, 43.6267784378567 ] } },
{ "type": "Feature", "properties": { "type_etablissement": "hospital", "nom_etablissement": "service MPEA", "website": null, "wikidata": null, "commune": "Montpellier", "code_commune": "34172", "departement": "Hérault", "code_departement": "34", "region": "Occitanie", "code_region": "76", "Métropole": "Montpellier" }, "geometry": { "type": "Point", "coordinates": [ 3.8439712785154, 43.595632543070401 ] } },
{ "type": "Feature", "properties": { "type_etablissement": "hospital", "nom_etablissement": "Clinique mutualiste La Sagesse", "website": "http://clinique-rennes.fr/", "wikidata": null, "commune": "Rennes", "code_commune": "35238", "departement": "Ille-et-Vilaine", "code_departement": "35", "region": "Bretagne", "code_region": "53", "Métropole": "Rennes" }, "geometry": { "type": "Point", "coordinates": [ -1.71284029396878, 48.100487677920498 ] } },
{ "type": "Feature", "properties": { "type_etablissement": "clinic", "nom_etablissement": "CABINET INFIRMIER DASTREVIGNE SIMONNEAU CLAIRE", "website": null, "wikidata": null, "commune": "Meylan", "code_commune": "38229", "departement": "Isère", "code_departement": "38", "region": "Auvergne-Rhône-Alpes", "code_region": "84", "Métropole": "Grenoble" }, "geometry": { "type": "Point", "coordinates": [ 5.75746622183131, 45.205766587366703 ] } },
{ "type": "Feature", "properties": { "type_etablissement": "pharmacy", "nom_etablissement": "Pharmacie du Polygone", "website": null, "wikidata": null, "commune": "Montpellier", "code_commune": "34172", "departement": "Hérault", "code_departement": "34", "region": "Occitanie", "code_region": "76", "Métropole": "Montpellier" }, "geometry": { "type": "Point", "coordinates": [ 3.88381532868691, 43.6088501320082 ] } },
{ "type": "Feature", "properties": { "type_etablissement": "dentist", "nom_etablissement": "Cabinet Saint-Eloi", "website": null, "wikidata": null, "commune": "Rouen", "code_commune": "76540", "departement": "Seine-Maritime", "code_departement": "76", "region": "Normandie", "code_region": "28", "Métropole": "Rouen" }, "geometry": { "type": "Point", "coordinates": [ 1.08682702837044, 49.440641578332098 ] } },
{ "type": "Feature", "properties": { "type_etablissement": "nursing_home", "nom_etablissement": "Ehpad La Pranière", "website": null, "wikidata": "Q112997802", "commune": "La Fouillouse", "code_commune": "42097", "departement": "Loire", "code_departement": "42", "region": "Auvergne-Rhône-Alpes", "code_region": "84", "Métropole": "Saint-Étienne" }, "geometry": { "type": "Point", "coordinates": [ 4.32237626671193, 45.505640960347797 ] } },
{ "type": "Feature", "properties": { "type_etablissement": "nursing_home", "nom_etablissement": "Ehpad du CH", "website": null, "wikidata": "Q112998161", "commune": "Saint-Galmier", "code_commune": "42222", "departement": "Loire", "code_departement": "42", "region": "Auvergne-Rhône-Alpes", "code_region": "84", "Métropole": "Saint-Étienne" }, "geometry": { "type": "Point", "coordinates": [ 4.30212164915022, 45.597727817554201 ] } },
{ "type": "Feature", "properties": { "type_etablissement": "nursing_home", "nom_etablissement": "Résidence des Hautes Bruyères", "website": null, "wikidata": "Q112991266", "commune": "Bonsecours", "code_commune": "76103", "departement": "Seine-Maritime", "code_departement": "76", "region": "Normandie", "code_region": "28", "Métropole": "Rouen" }, "geometry": { "type": "Point", "coordinates": [ 1.1276436278832, 49.417685138101398 ] } },
{ "type": "Feature", "properties": { "type_etablissement": "doctors", "nom_etablissement": "Docteur Pellerin-Leblay", "website": null, "wikidata": null, "commune": "Betton", "code_commune": "35024", "departement": "Ille-et-Vilaine", "code_departement": "35", "region": "Bretagne", "code_region": "53", "Métropole": "Rennes" }, "geometry": { "type": "Point", "coordinates": [ -1.64511466852969, 48.181721547366998 ] } },
{ "type": "Feature", "properties": { "type_etablissement": "doctors", "nom_etablissement": "Docteur Odile Mammaux", "website": null, "wikidata": null, "commune": "Franqueville-Saint-Pierre", "code_commune": "76475", "departement": "Seine-Maritime", "code_departement": "76", "region": "Normandie", "code_region": "28", "Métropole": "Rouen" }, "geometry": { "type": "Point", "coordinates": [ 1.17608029939007, 49.4014786444964 ] } },
{ "type": "Feature", "properties": { "type_etablissement": "doctors", "nom_etablissement": "Cabinet médical", "website": null, "wikidata": null, "commune": "Déville-lès-Rouen", "code_commune": "76216", "departement": "Seine-Maritime", "code_departement": "76", "region": "Normandie", "code_region": "28", "Métropole": "Rouen" }, "geometry": { "type": "Point", "coordinates": [ 1.05098131653472, 49.467348249680597 ] } },
{ "type": "Feature", "properties": { "type_etablissement": "hospital", "nom_etablissement": "Hôpital psychiatrique", "website": null, "wikidata": null, "commune": "Rouen", "code_commune": "76540", "departement": "Seine-Maritime", "code_departement": "76", "region": "Normandie", "code_region": "28", "Métropole": "Rouen" }, "geometry": { "type": "Point", "coordinates": [ 1.10738515464604, 49.440936956599899 ] } },
{ "type": "Feature", "properties": { "type_etablissement": "pharmacy", "nom_etablissement": "Pharmacie de l'Hôtel de Ville", "website": null, "wikidata": null, "commune": "Laillé", "code_commune": "35139", "departement": "Ille-et-Vilaine", "code_departement": "35", "region": "Bretagne", "code_region": "53", "Métropole": "Rennes" }, "geometry": { "type": "Point", "coordinates": [ -1.72205282831163, 47.978934475852803 ] } },
{ "type": "Feature", "properties": { "type_etablissement": "pharmacy", "nom_etablissement": "Pharmacie Maillet", "website": null, "wikidata": null, "commune": "Saint-Léger-du-Bourg-Denis", "code_commune": "76599", "departement": "Seine-Maritime", "code_departement": "76", "region": "Normandie", "code_region": "28", "Métropole": "Rouen" }, "geometry": { "type": "Point", "coordinates": [ 1.15884182586632, 49.431894140361102 ] } },
{ "type": "Feature", "properties": { "type_etablissement": "doctors", "nom_etablissement": "Centre Médical Achille", "website": null, "wikidata": null, "commune": "Montpellier", "code_commune": "34172", "departement": "Hérault", "code_departement": "34", "region": "Occitanie", "code_region": "76", "Métropole": "Montpellier" }, "geometry": { "type": "Point", "coordinates": [ 3.87846522640552, 43.594712378987502 ] } },
{ "type": "Feature", "properties": { "type_etablissement": "pharmacy", "nom_etablissement": "Pharmacie Duverney Joux", "website": null, "wikidata": null, "commune": "Fontaine", "code_commune": "38169", "departement": "Isère", "code_departement": "38", "region": "Auvergne-Rhône-Alpes", "code_region": "84", "Métropole": "Grenoble" }, "geometry": { "type": "Point", "coordinates": [ 5.69334666894787, 45.197744236304501 ] } },
{ "type": "Feature", "properties": { "type_etablissement": "clinic", "nom_etablissement": "Clinique Vision Laser des Alpes", "website": "http://www.cvla.fr", "wikidata": null, "commune": "Grenoble", "code_commune": "38185", "departement": "Isère", "code_departement": "38", "region": "Auvergne-Rhône-Alpes", "code_region": "84", "Métropole": "Grenoble" }, "geometry": { "type": "Point", "coordinates": [ 5.7321589877738, 45.1863002562636 ] } },
{ "type": "Feature", "properties": { "type_etablissement": "pharmacy", "nom_etablissement": "Pharmacie de la Mairie", "website": "https://pharmaciedelamairiemontpellier.pharm-upp.fr/", "wikidata": null, "commune": "Montpellier", "code_commune": "34172", "departement": "Hérault", "code_departement": "34", "region": "Occitanie", "code_region": "76", "Métropole": "Montpellier" }, "geometry": { "type": "Point", "coordinates": [ 3.90364555318618, 43.598650783831701 ] } },
{ "type": "Feature", "properties": { "type_etablissement": "dentist", "nom_etablissement": "Centre Dentaire du Corum", "website": null, "wikidata": null, "commune": "Montpellier", "code_commune": "34172", "departement": "Hérault", "code_departement": "34", "region": "Occitanie", "code_region": "76", "Métropole": "Montpellier" }, "geometry": { "type": "Point", "coordinates": [ 3.88141674597003, 43.614223857013897 ] } },
{ "type": "Feature", "properties": { "type_etablissement": "pharmacy", "nom_etablissement": "Pharmacie du Vercors", "website": "https://www.pharmaciereference.fr/pharmacie/0-point-conseil-grenoble", "wikidata": null, "commune": "Grenoble", "code_commune": "38185", "departement": "Isère", "code_departement": "38", "region": "Auvergne-Rhône-Alpes", "code_region": "84", "Métropole": "Grenoble" }, "geometry": { "type": "Point", "coordinates": [ 5.71146599667611, 45.1885771164416 ] } },
{ "type": "Feature", "properties": { "type_etablissement": "doctors", "nom_etablissement": "Laura Perrin", "website": null, "wikidata": null, "commune": "Vezin-le-Coquet", "code_commune": "35353", "departement": "Ille-et-Vilaine", "code_departement": "35", "region": "Bretagne", "code_region": "53", "Métropole": "Rennes" }, "geometry": { "type": "Point", "coordinates": [ -1.75721851634287, 48.1191082277467 ] } },
{ "type": "Feature", "properties": { "type_etablissement": "doctors", "nom_etablissement": "Aurélia BORRO - Sophrologue", "website": null, "wikidata": null, "commune": "Clapiers", "code_commune": "34077", "departement": "Hérault", "code_departement": "34", "region": "Occitanie", "code_region": "76", "Métropole": "Montpellier" }, "geometry": { "type": "Point", "coordinates": [ 3.88625285264405, 43.657575060227302 ] } },
{ "type": "Feature", "properties": { "type_etablissement": "doctors", "nom_etablissement": "Centre d'Imagerie", "website": null, "wikidata": null, "commune": "Le Mesnil-Esnard", "code_commune": "76429", "departement": "Seine-Maritime", "code_departement": "76", "region": "Normandie", "code_region": "28", "Métropole": "Rouen" }, "geometry": { "type": "Point", "coordinates": [ 1.15161126091272, 49.413126556241501 ] } },
{ "type": "Feature", "properties": { "type_etablissement": "doctors", "nom_etablissement": "Centre d'Imagerie Médicale des Beaux Arts", "website": null, "wikidata": null, "commune": "Rouen", "code_commune": "76540", "departement": "Seine-Maritime", "code_departement": "76", "region": "Normandie", "code_region": "28", "Métropole": "Rouen" }, "geometry": { "type": "Point", "coordinates": [ 1.09309216571651, 49.444406645418603 ] } },
{ "type": "Feature", "properties": { "type_etablissement": "clinic", "nom_etablissement": "Cabinet d'infirmière", "website": null, "wikidata": null, "commune": "Cintré", "code_commune": "35080", "departement": "Ille-et-Vilaine", "code_departement": "35", "region": "Bretagne", "code_region": "53", "Métropole": "Rennes" }, "geometry": { "type": "Point", "coordinates": [ -1.8707222649807, 48.105990614475203 ] } },
{ "type": "Feature", "properties": { "type_etablissement": "hospital", "nom_etablissement": "Centre Bourgès", "website": null, "wikidata": null, "commune": "Castelnau-le-Lez", "code_commune": "34057", "departement": "Hérault", "code_departement": "34", "region": "Occitanie", "code_region": "76", "Métropole": "Montpellier" }, "geometry": { "type": "Point", "coordinates": [ 3.91126614282182, 43.624752071950702 ] } },
{ "type": "Feature", "properties": { "type_etablissement": "pharmacy", "nom_etablissement": null, "website": null, "wikidata": null, "commune": "Juvignac", "code_commune": "34123", "departement": "Hérault", "code_departement": "34", "region": "Occitanie", "code_region": "76", "Métropole": "Montpellier" }, "geometry": { "type": "Point", "coordinates": [ 3.81169347698275, 43.613718260614398 ] } },
{ "type": "Feature", "properties": { "type_etablissement": "doctors", "nom_etablissement": "Accès Vision", "website": null, "wikidata": null, "commune": "Grenoble", "code_commune": "38185", "departement": "Isère", "code_departement": "38", "region": "Auvergne-Rhône-Alpes", "code_region": "84", "Métropole": "Grenoble" }, "geometry": { "type": "Point", "coordinates": [ 5.72455467375769, 45.190032131013503 ] } },
{ "type": "Feature", "properties": { "type_etablissement": "doctors", "nom_etablissement": "Cabinet médical", "website": null, "wikidata": null, "commune": "Montpellier", "code_commune": "34172", "departement": "Hérault", "code_departement": "34", "region": "Occitanie", "code_region": "76", "Métropole": "Montpellier" }, "geometry": { "type": "Point", "coordinates": [ 3.87354999456557, 43.615398832200803 ] } },
{ "type": "Feature", "properties": { "type_etablissement": "pharmacy", "nom_etablissement": "Pharmacie des Longs Vallons", "website": null, "wikidata": null, "commune": "Notre-Dame-de-Bondeville", "code_commune": "76474", "departement": "Seine-Maritime", "code_departement": "76", "region": "Normandie", "code_region": "28", "Métropole": "Rouen" }, "geometry": { "type": "Point", "coordinates": [ 1.05739296954826, 49.483259448836797 ] } },
{ "type": "Feature", "properties": { "type_etablissement": "doctors", "nom_etablissement": null, "website": null, "wikidata": null, "commune": "Cesson-Sévigné", "code_commune": "35051", "departement": "Ille-et-Vilaine", "code_departement": "35", "region": "Bretagne", "code_region": "53", "Métropole": "Rennes" }, "geometry": { "type": "Point", "coordinates": [ -1.60405935241451, 48.117112748058197 ] } },
{ "type": "Feature", "properties": { "type_etablissement": "doctors", "nom_etablissement": "Delphine Mascarene", "website": null, "wikidata": null, "commune": "Montpellier", "code_commune": "34172", "departement": "Hérault", "code_departement": "34", "region": "Occitanie", "code_region": "76", "Métropole": "Montpellier" }, "geometry": { "type": "Point", "coordinates": [ 3.86733724411431, 43.5950431288868 ] } },
{ "type": "Feature", "properties": { "type_etablissement": "doctors", "nom_etablissement": "Frédéric Faure", "website": null, "wikidata": null, "commune": "Montpellier", "code_commune": "34172", "departement": "Hérault", "code_departement": "34", "region": "Occitanie", "code_region": "76", "Métropole": "Montpellier" }, "geometry": { "type": "Point", "coordinates": [ 3.86760186079749, 43.594700476684999 ] } },
{ "type": "Feature", "properties": { "type_etablissement": "doctors", "nom_etablissement": null, "website": null, "wikidata": null, "commune": "Grenoble", "code_commune": "38185", "departement": "Isère", "code_departement": "38", "region": "Auvergne-Rhône-Alpes", "code_region": "84", "Métropole": "Grenoble" }, "geometry": { "type": "Point", "coordinates": [ 5.70990302319137, 45.189738848221502 ] } },
{ "type": "Feature", "properties": { "type_etablissement": "doctors", "nom_etablissement": "Docteurs Bacquart, Tortorici, Jeffroy", "website": null, "wikidata": null, "commune": "Montpellier", "code_commune": "34172", "departement": "Hérault", "code_departement": "34", "region": "Occitanie", "code_region": "76", "Métropole": "Montpellier" }, "geometry": { "type": "Point", "coordinates": [ 3.87214217010853, 43.627478579597302 ] } },
{ "type": "Feature", "properties": { "type_etablissement": "doctors", "nom_etablissement": "Pôle médical de Saint-Jean", "website": null, "wikidata": null, "commune": "Saint-Jean-de-Védas", "code_commune": "34270", "departement": "Hérault", "code_departement": "34", "region": "Occitanie", "code_region": "76", "Métropole": "Montpellier" }, "geometry": { "type": "Point", "coordinates": [ 3.83264655853588, 43.576062476788401 ] } },
{ "type": "Feature", "properties": { "type_etablissement": "doctors", "nom_etablissement": "Centre Paramédical", "website": null, "wikidata": null, "commune": "Jacou", "code_commune": "34120", "departement": "Hérault", "code_departement": "34", "region": "Occitanie", "code_region": "76", "Métropole": "Montpellier" }, "geometry": { "type": "Point", "coordinates": [ 3.91240338471704, 43.658944495567802 ] } },
{ "type": "Feature", "properties": { "type_etablissement": "dentist", "nom_etablissement": null, "website": null, "wikidata": null, "commune": "Cesson-Sévigné", "code_commune": "35051", "departement": "Ille-et-Vilaine", "code_departement": "35", "region": "Bretagne", "code_region": "53", "Métropole": "Rennes" }, "geometry": { "type": "Point", "coordinates": [ -1.61160960315516, 48.122850579875603 ] } },
{ "type": "Feature", "properties": { "type_etablissement": "dentist", "nom_etablissement": "Le Hoche", "website": null, "wikidata": null, "commune": "Rennes", "code_commune": "35238", "departement": "Ille-et-Vilaine", "code_departement": "35", "region": "Bretagne", "code_region": "53", "Métropole": "Rennes" }, "geometry": { "type": "Point", "coordinates": [ -1.67890144966987, 48.115085081861402 ] } },
{ "type": "Feature", "properties": { "type_etablissement": "pharmacy", "nom_etablissement": "Pharmacie Folliot", "website": "https://pharmaciedesaintpierre.fr/", "wikidata": null, "commune": "Saint-Pierre-de-Varengeville", "code_commune": "76636", "departement": "Seine-Maritime", "code_departement": "76", "region": "Normandie", "code_region": "28", "Métropole": "Rouen" }, "geometry": { "type": "Point", "coordinates": [ 0.928011839999613, 49.499132845609701 ] } },
{ "type": "Feature", "properties": { "type_etablissement": "pharmacy", "nom_etablissement": "Pharmacie du Petit Baud", "website": "https://pharmaciepetitbaud.epharmacie.pro/", "wikidata": null, "commune": "Rennes", "code_commune": "35238", "departement": "Ille-et-Vilaine", "code_departement": "35", "region": "Bretagne", "code_region": "53", "Métropole": "Rennes" }, "geometry": { "type": "Point", "coordinates": [ -1.6460085146841, 48.109601137891097 ] } },
{ "type": "Feature", "properties": { "type_etablissement": "doctors", "nom_etablissement": "Cabinet de Kinésithérapie du Sport", "website": "https://www.kine-luna.fr/", "wikidata": null, "commune": "Castelnau-le-Lez", "code_commune": "34057", "departement": "Hérault", "code_departement": "34", "region": "Occitanie", "code_region": "76", "Métropole": "Montpellier" }, "geometry": { "type": "Point", "coordinates": [ 3.90239673343237, 43.629652258547303 ] } },
{ "type": "Feature", "properties": { "type_etablissement": "doctors", "nom_etablissement": "Joël TERRIEU", "website": null, "wikidata": null, "commune": "Clapiers", "code_commune": "34077", "departement": "Hérault", "code_departement": "34", "region": "Occitanie", "code_region": "76", "Métropole": "Montpellier" }, "geometry": { "type": "Point", "coordinates": [ 3.88624069888445, 43.657533234530497 ] } },
{ "type": "Feature", "properties": { "type_etablissement": "pharmacy", "nom_etablissement": "Pharmacie Bouriel et Salmon", "website": null, "wikidata": null, "commune": "Cesson-Sévigné", "code_commune": "35051", "departement": "Ille-et-Vilaine", "code_departement": "35", "region": "Bretagne", "code_region": "53", "Métropole": "Rennes" }, "geometry": { "type": "Point", "coordinates": [ -1.58999140893108, 48.112246269839403 ] } },
{ "type": "Feature", "properties": { "type_etablissement": "clinic", "nom_etablissement": "BournonVille - Deneau - Burel - Falcon", "website": null, "wikidata": null, "commune": "Montpellier", "code_commune": "34172", "departement": "Hérault", "code_departement": "34", "region": "Occitanie", "code_region": "76", "Métropole": "Montpellier" }, "geometry": { "type": "Point", "coordinates": [ 3.85207589391115, 43.601207767213801 ] } },
{ "type": "Feature", "properties": { "type_etablissement": "doctors", "nom_etablissement": "Imera Colombier", "website": null, "wikidata": null, "commune": "Rennes", "code_commune": "35238", "departement": "Ille-et-Vilaine", "code_departement": "35", "region": "Bretagne", "code_region": "53", "Métropole": "Rennes" }, "geometry": { "type": "Point", "coordinates": [ -1.68282946095405, 48.105937324194997 ] } },
{ "type": "Feature", "properties": { "type_etablissement": "dentist", "nom_etablissement": "Cabinet Dentaire et Médical Montpellier Restanque", "website": "https://cabinet-dentaire-medical-montpellier-restanque.fr/", "wikidata": null, "commune": "Montpellier", "code_commune": "34172", "departement": "Hérault", "code_departement": "34", "region": "Occitanie", "code_region": "76", "Métropole": "Montpellier" }, "geometry": { "type": "Point", "coordinates": [ 3.88297645051256, 43.590999531157799 ] } },
{ "type": "Feature", "properties": { "type_etablissement": "doctors", "nom_etablissement": "Barbara Keita", "website": null, "wikidata": null, "commune": "Rouen", "code_commune": "76540", "departement": "Seine-Maritime", "code_departement": "76", "region": "Normandie", "code_region": "28", "Métropole": "Rouen" }, "geometry": { "type": "Point", "coordinates": [ 1.10069136677168, 49.432702742560302 ] } },
{ "type": "Feature", "properties": { "type_etablissement": "pharmacy", "nom_etablissement": "Pharmacie du Centre", "website": null, "wikidata": null, "commune": "Vendargues", "code_commune": "34327", "departement": "Hérault", "code_departement": "34", "region": "Occitanie", "code_region": "76", "Métropole": "Montpellier" }, "geometry": { "type": "Point", "coordinates": [ 3.97087040698315, 43.656998841670003 ] } },
{ "type": "Feature", "properties": { "type_etablissement": "dentist", "nom_etablissement": null, "website": null, "wikidata": null, "commune": "Rennes", "code_commune": "35238", "departement": "Ille-et-Vilaine", "code_departement": "35", "region": "Bretagne", "code_region": "53", "Métropole": "Rennes" }, "geometry": { "type": "Point", "coordinates": [ -1.707613970869, 48.100122443714199 ] } },
{ "type": "Feature", "properties": { "type_etablissement": "doctors", "nom_etablissement": "Cabinet de kinesitérapeutes", "website": null, "wikidata": null, "commune": "Castries", "code_commune": "34058", "departement": "Hérault", "code_departement": "34", "region": "Occitanie", "code_region": "76", "Métropole": "Montpellier" }, "geometry": { "type": "Point", "coordinates": [ 3.98591154654593, 43.679516380615603 ] } },
{ "type": "Feature", "properties": { "type_etablissement": "hospital", "nom_etablissement": "Hôpital Charles Nicolle", "website": "https://www.chu-rouen.fr/", "wikidata": "Q50379036", "commune": "Rouen", "code_commune": "76540", "departement": "Seine-Maritime", "code_departement": "76", "region": "Normandie", "code_region": "28", "Métropole": "Rouen" }, "geometry": { "type": "Point", "coordinates": [ 1.10920969932894, 49.4401491188572 ] } },
{ "type": "Feature", "properties": { "type_etablissement": "hospital", "nom_etablissement": "Hôpital de la Croix-Rouge", "website": "https://www.croix-rouge.fr/hopital-de-bois-guillaume", "wikidata": null, "commune": "Bois-Guillaume", "code_commune": "76108", "departement": "Seine-Maritime", "code_departement": "76", "region": "Normandie", "code_region": "28", "Métropole": "Rouen" }, "geometry": { "type": "Point", "coordinates": [ 1.11124282539839, 49.476806242205797 ] } },
{ "type": "Feature", "properties": { "type_etablissement": "nursing_home", "nom_etablissement": "Résidence Les Tilleuls", "website": "https://www.aesio-sante.fr/residence-mutualiste-les-tilleuls/", "wikidata": "Q112940516", "commune": "La Grand-Croix", "code_commune": "42103", "departement": "Loire", "code_departement": "42", "region": "Auvergne-Rhône-Alpes", "code_region": "84", "Métropole": "Saint-Étienne" }, "geometry": { "type": "Point", "coordinates": [ 4.5721732585735, 45.499406689494201 ] } },
{ "type": "Feature", "properties": { "type_etablissement": "nursing_home", "nom_etablissement": "EHPAD Michel Philibert", "website": null, "wikidata": "Q112997456", "commune": "Saint-Martin-d'Hères", "code_commune": "38421", "departement": "Isère", "code_departement": "38", "region": "Auvergne-Rhône-Alpes", "code_region": "84", "Métropole": "Grenoble" }, "geometry": { "type": "Point", "coordinates": [ 5.75374044751517, 45.1719863014061 ] } },
{ "type": "Feature", "properties": { "type_etablissement": "nursing_home", "nom_etablissement": "EHPAD Saint-Louis", "website": "https://www.ehpadsaintheand.fr/", "wikidata": "Q112997890", "commune": "Saint-Héand", "code_commune": "42234", "departement": "Loire", "code_departement": "42", "region": "Auvergne-Rhône-Alpes", "code_region": "84", "Métropole": "Saint-Étienne" }, "geometry": { "type": "Point", "coordinates": [ 4.37385902389801, 45.525262320645297 ] } },
{ "type": "Feature", "properties": { "type_etablissement": "hospital", "nom_etablissement": "Centre Orthopédique Maguelone", "website": null, "wikidata": null, "commune": "Castelnau-le-Lez", "code_commune": "34057", "departement": "Hérault", "code_departement": "34", "region": "Occitanie", "code_region": "76", "Métropole": "Montpellier" }, "geometry": { "type": "Point", "coordinates": [ 3.90842712484472, 43.624149260563399 ] } },
{ "type": "Feature", "properties": { "type_etablissement": "doctors", "nom_etablissement": "Pôle Médical La Triade", "website": null, "wikidata": null, "commune": "Saint-Drézéry", "code_commune": "34249", "departement": "Hérault", "code_departement": "34", "region": "Occitanie", "code_region": "76", "Métropole": "Montpellier" }, "geometry": { "type": "Point", "coordinates": [ 3.97976035457847, 43.7327003705377 ] } },
{ "type": "Feature", "properties": { "type_etablissement": "hospital", "nom_etablissement": "Clinique Le Castelet", "website": null, "wikidata": null, "commune": "Saint-Jean-de-Védas", "code_commune": "34270", "departement": "Hérault", "code_departement": "34", "region": "Occitanie", "code_region": "76", "Métropole": "Montpellier" }, "geometry": { "type": "Point", "coordinates": [ 3.82504454927334, 43.579556285424196 ] } },
{ "type": "Feature", "properties": { "type_etablissement": "hospital", "nom_etablissement": "Hôpital Pontchaillou", "website": "https://www.chu-rennes.fr/", "wikidata": "Q2945770", "commune": "Rennes", "code_commune": "35238", "departement": "Ille-et-Vilaine", "code_departement": "35", "region": "Bretagne", "code_region": "53", "Métropole": "Rennes" }, "geometry": { "type": "Point", "coordinates": [ -1.69512480266506, 48.1208327722034 ] } },
{ "type": "Feature", "properties": { "type_etablissement": "nursing_home", "nom_etablissement": "Foyer Les Mûriers", "website": null, "wikidata": null, "commune": "Castelnau-le-Lez", "code_commune": "34057", "departement": "Hérault", "code_departement": "34", "region": "Occitanie", "code_region": "76", "Métropole": "Montpellier" }, "geometry": { "type": "Point", "coordinates": [ 3.91228925430472, 43.641272697748903 ] } },
{ "type": "Feature", "properties": { "type_etablissement": "pharmacy", "nom_etablissement": "Pharmacie de l'Yser", "website": "https://pharmacieyser.pharminfo.fr/", "wikidata": null, "commune": "Rouen", "code_commune": "76540", "departement": "Seine-Maritime", "code_departement": "76", "region": "Normandie", "code_region": "28", "Métropole": "Rouen" }, "geometry": { "type": "Point", "coordinates": [ 1.09971847927034, 49.448154445784503 ] } },
{ "type": "Feature", "properties": { "type_etablissement": "dentist", "nom_etablissement": "Philippe Le Guédard", "website": null, "wikidata": null, "commune": "Rennes", "code_commune": "35238", "departement": "Ille-et-Vilaine", "code_departement": "35", "region": "Bretagne", "code_region": "53", "Métropole": "Rennes" }, "geometry": { "type": "Point", "coordinates": [ -1.68211993285044, 48.108773089676603 ] } },
{ "type": "Feature", "properties": { "type_etablissement": "doctors", "nom_etablissement": "William Michigan", "website": null, "wikidata": null, "commune": "Rennes", "code_commune": "35238", "departement": "Ille-et-Vilaine", "code_departement": "35", "region": "Bretagne", "code_region": "53", "Métropole": "Rennes" }, "geometry": { "type": "Point", "coordinates": [ -1.67470857024537, 48.116919880466099 ] } },
{ "type": "Feature", "properties": { "type_etablissement": "dentist", "nom_etablissement": "Dr. Simon Prunet, Dr Harrison Rocca", "website": null, "wikidata": null, "commune": "Fontanil-Cornillon", "code_commune": "38170", "departement": "Isère", "code_departement": "38", "region": "Auvergne-Rhône-Alpes", "code_region": "84", "Métropole": "Grenoble" }, "geometry": { "type": "Point", "coordinates": [ 5.66950535119921, 45.246531019906797 ] } },
{ "type": "Feature", "properties": { "type_etablissement": "doctors", "nom_etablissement": "Cabinet médical Littré", "website": null, "wikidata": null, "commune": "Sotteville-lès-Rouen", "code_commune": "76681", "departement": "Seine-Maritime", "code_departement": "76", "region": "Normandie", "code_region": "28", "Métropole": "Rouen" }, "geometry": { "type": "Point", "coordinates": [ 1.09631802497185, 49.417123634407801 ] } },
{ "type": "Feature", "properties": { "type_etablissement": "doctors", "nom_etablissement": null, "website": null, "wikidata": null, "commune": "Yainville", "code_commune": "76750", "departement": "Seine-Maritime", "code_departement": "76", "region": "Normandie", "code_region": "28", "Métropole": "Rouen" }, "geometry": { "type": "Point", "coordinates": [ 0.831713076448466, 49.454004678923503 ] } },
{ "type": "Feature", "properties": { "type_etablissement": "doctors", "nom_etablissement": "Aurore Nicolas", "website": null, "wikidata": null, "commune": "Rennes", "code_commune": "35238", "departement": "Ille-et-Vilaine", "code_departement": "35", "region": "Bretagne", "code_region": "53", "Métropole": "Rennes" }, "geometry": { "type": "Point", "coordinates": [ -1.64445970661569, 48.089274687419298 ] } },
{ "type": "Feature", "properties": { "type_etablissement": "doctors", "nom_etablissement": "Cabinet médical", "website": null, "wikidata": null, "commune": "Saint-Jean-de-Védas", "code_commune": "34270", "departement": "Hérault", "code_departement": "34", "region": "Occitanie", "code_region": "76", "Métropole": "Montpellier" }, "geometry": { "type": "Point", "coordinates": [ 3.83601868200162, 43.579065545057396 ] } },
{ "type": "Feature", "properties": { "type_etablissement": "pharmacy", "nom_etablissement": "Pharmacie du Midi", "website": null, "wikidata": null, "commune": "Cournonterral", "code_commune": "34088", "departement": "Hérault", "code_departement": "34", "region": "Occitanie", "code_region": "76", "Métropole": "Montpellier" },