{
"type": "FeatureCollection",
"name": "Etablissements_santé_filtre",
"crs": { "type": "name", "properties": { "name": "urn:ogc:def:crs:OGC:1.3:CRS84" } },
"features": [
{ "type": "Feature", "properties": { "type_etablissement": "dentist", "nom_etablissement": "Olivier Quéré", "commune": "Rennes", "code_commune": "35238", "departement": "Ille-et-Vilaine", "code_departement": "35", "region": "Bretagne", "code_region": "53", "Métropole": "Rennes" }, "geometry": { "type": "Point", "coordinates": [ -1.66339886829334, 48.094562997769501 ] } },
{ "type": "Feature", "properties": { "type_etablissement": "hospital", "nom_etablissement": "Hôpital de jour Addictologie", "commune": "Saint-Martin-d'Hères", "code_commune": "38421", "departement": "Isère", "code_departement": "38", "region": "Auvergne-Rhône-Alpes", "code_region": "84", "Métropole": "Grenoble" }, "geometry": { "type": "Point", "coordinates": [ 5.75351398158412, 45.184997373234303 ] } },
{ "type": "Feature", "properties": { "type_etablissement": "pharmacy", "nom_etablissement": "Pharmacie Jaouen", "commune": "Vezin-le-Coquet", "code_commune": "35353", "departement": "Ille-et-Vilaine", "code_departement": "35", "region": "Bretagne", "code_region": "53", "Métropole": "Rennes" }, "geometry": { "type": "Point", "coordinates": [ -1.75734424489048, 48.119070173906302 ] } },
{ "type": "Feature", "properties": { "type_etablissement": "doctors", "nom_etablissement": "Kiné-Santé Pédicure Podologue", "commune": "Saint-Chamond", "code_commune": "42207", "departement": "Loire", "code_departement": "42", "region": "Auvergne-Rhône-Alpes", "code_region": "84", "Métropole": "Saint-Étienne" }, "geometry": { "type": "Point", "coordinates": [ 4.50816383276188, 45.473090342287598 ] } },
{ "type": "Feature", "properties": { "type_etablissement": "pharmacy", "nom_etablissement": "Pharmacie Grangeon", "commune": "Échirolles", "code_commune": "38151", "departement": "Isère", "code_departement": "38", "region": "Auvergne-Rhône-Alpes", "code_region": "84", "Métropole": "Grenoble" }, "geometry": { "type": "Point", "coordinates": [ 5.71882765459537, 45.156461938251297 ] } },
{ "type": "Feature", "properties": { "type_etablissement": "doctors", "nom_etablissement": "Podologue pédicure", "commune": "Grenoble", "code_commune": "38185", "departement": "Isère", "code_departement": "38", "region": "Auvergne-Rhône-Alpes", "code_region": "84", "Métropole": "Grenoble" }, "geometry": { "type": "Point", "coordinates": [ 5.74131688754312, 45.178144748294798 ] } },
{ "type": "Feature", "properties": { "type_etablissement": "dentist", "nom_etablissement": "Lacarte-Reix & Mazza-Gottardo", "commune": "Champ-sur-Drac", "code_commune": "38071", "departement": "Isère", "code_departement": "38", "region": "Auvergne-Rhône-Alpes", "code_region": "84", "Métropole": "Grenoble" }, "geometry": { "type": "Point", "coordinates": [ 5.73617668542195, 45.080168682099597 ] } },
{ "type": "Feature", "properties": { "type_etablissement": "doctors", "nom_etablissement": "Pédicure-Podologue", "commune": "Grenoble", "code_commune": "38185", "departement": "Isère", "code_departement": "38", "region": "Auvergne-Rhône-Alpes", "code_region": "84", "Métropole": "Grenoble" }, "geometry": { "type": "Point", "coordinates": [ 5.72414982783442, 45.186543918188796 ] } },
{ "type": "Feature", "properties": { "type_etablissement": "doctors", "nom_etablissement": "Centre de dialyse", "commune": "L'Horme", "code_commune": "42110", "departement": "Loire", "code_departement": "42", "region": "Auvergne-Rhône-Alpes", "code_region": "84", "Métropole": "Saint-Étienne" }, "geometry": { "type": "Point", "coordinates": [ 4.53820096951739, 45.485543922565697 ] } },
{ "type": "Feature", "properties": { "type_etablissement": "nursing_home", "nom_etablissement": "La source", "commune": "Le Houlme", "code_commune": "76366", "departement": "Seine-Maritime", "code_departement": "76", "region": "Normandie", "code_region": "28", "Métropole": "Rouen" }, "geometry": { "type": "Point", "coordinates": [ 1.04037804138216, 49.502105655208297 ] } },
{ "type": "Feature", "properties": { "type_etablissement": "clinic", "nom_etablissement": "Pôle santé les praticiens", "commune": "Montpellier", "code_commune": "34172", "departement": "Hérault", "code_departement": "34", "region": "Occitanie", "code_region": "76", "Métropole": "Montpellier" }, "geometry": { "type": "Point", "coordinates": [ 3.89750052851258, 43.6178380498433 ] } },
{ "type": "Feature", "properties": { "type_etablissement": "doctors", "nom_etablissement": "Marie Line Gentil", "commune": "Vezin-le-Coquet", "code_commune": "35353", "departement": "Ille-et-Vilaine", "code_departement": "35", "region": "Bretagne", "code_region": "53", "Métropole": "Rennes" }, "geometry": { "type": "Point", "coordinates": [ -1.75604396025116, 48.119976676734503 ] } },
{ "type": "Feature", "properties": { "type_etablissement": "doctors", "nom_etablissement": "Anne-Laure de Fonclare", "commune": "Rennes", "code_commune": "35238", "departement": "Ille-et-Vilaine", "code_departement": "35", "region": "Bretagne", "code_region": "53", "Métropole": "Rennes" }, "geometry": { "type": "Point", "coordinates": [ -1.67432560108938, 48.094876145672103 ] } },
{ "type": "Feature", "properties": { "type_etablissement": "pharmacy", "nom_etablissement": "Pharmacie Mutualiste", "commune": "Firminy", "code_commune": "42095", "departement": "Loire", "code_departement": "42", "region": "Auvergne-Rhône-Alpes", "code_region": "84", "Métropole": "Saint-Étienne" }, "geometry": { "type": "Point", "coordinates": [ 4.28636702394527, 45.386448117925497 ] } },
{ "type": "Feature", "properties": { "type_etablissement": "clinic", "nom_etablissement": "Medic Global", "commune": "Castelnau-le-Lez", "code_commune": "34057", "departement": "Hérault", "code_departement": "34", "region": "Occitanie", "code_region": "76", "Métropole": "Montpellier" }, "geometry": { "type": "Point", "coordinates": [ 3.91805404474147, 43.6191691798862 ] } },
{ "type": "Feature", "properties": { "type_etablissement": "doctors", "nom_etablissement": "Psychiatre", "commune": "Grenoble", "code_commune": "38185", "departement": "Isère", "code_departement": "38", "region": "Auvergne-Rhône-Alpes", "code_region": "84", "Métropole": "Grenoble" }, "geometry": { "type": "Point", "coordinates": [ 5.7052284357915, 45.203690945148999 ] } },
{ "type": "Feature", "properties": { "type_etablissement": "clinic", "nom_etablissement": "ADAPEI Centre médical / Dispensaire", "commune": "L'Horme", "code_commune": "42110", "departement": "Loire", "code_departement": "42", "region": "Auvergne-Rhône-Alpes", "code_region": "84", "Métropole": "Saint-Étienne" }, "geometry": { "type": "Point", "coordinates": [ 4.55986005877483, 45.4940721737687 ] } },
{ "type": "Feature", "properties": { "type_etablissement": "doctors", "nom_etablissement": "Pôle Santé", "commune": "Tourville-la-Rivière", "code_commune": "76705", "departement": "Seine-Maritime", "code_departement": "76", "region": "Normandie", "code_region": "28", "Métropole": "Rouen" }, "geometry": { "type": "Point", "coordinates": [ 1.10164145549641, 49.331068646182104 ] } },
{ "type": "Feature", "properties": { "type_etablissement": "pharmacy", "nom_etablissement": "Pharmacie Lebret", "commune": "Cesson-Sévigné", "code_commune": "35051", "departement": "Ille-et-Vilaine", "code_departement": "35", "region": "Bretagne", "code_region": "53", "Métropole": "Rennes" }, "geometry": { "type": "Point", "coordinates": [ -1.59930471783935, 48.1224191633193 ] } },
{ "type": "Feature", "properties": { "type_etablissement": "pharmacy", "nom_etablissement": "Pharmacie des Buclos", "commune": "Meylan", "code_commune": "38229", "departement": "Isère", "code_departement": "38", "region": "Auvergne-Rhône-Alpes", "code_region": "84", "Métropole": "Grenoble" }, "geometry": { "type": "Point", "coordinates": [ 5.77332712430567, 45.206358569652998 ] } },
{ "type": "Feature", "properties": { "type_etablissement": "dentist", "nom_etablissement": "Cabinet Dentaire", "commune": "Eybens", "code_commune": "38158", "departement": "Isère", "code_departement": "38", "region": "Auvergne-Rhône-Alpes", "code_region": "84", "Métropole": "Grenoble" }, "geometry": { "type": "Point", "coordinates": [ 5.74337715934317, 45.147615593822998 ] } },
{ "type": "Feature", "properties": { "type_etablissement": "doctors", "nom_etablissement": "Marie-Claude Simon", "commune": "Vif", "code_commune": "38545", "departement": "Isère", "code_departement": "38", "region": "Auvergne-Rhône-Alpes", "code_region": "84", "Métropole": "Grenoble" }, "geometry": { "type": "Point", "coordinates": [ 5.66864042261071, 45.055255486573103 ] } },
{ "type": "Feature", "properties": { "type_etablissement": "doctors", "nom_etablissement": "Delphine Mascarene", "commune": "Montpellier", "code_commune": "34172", "departement": "Hérault", "code_departement": "34", "region": "Occitanie", "code_region": "76", "Métropole": "Montpellier" }, "geometry": { "type": "Point", "coordinates": [ 3.86733724411431, 43.5950431288868 ] } },
{ "type": "Feature", "properties": { "type_etablissement": "doctors", "nom_etablissement": "Frédéric Faure", "commune": "Montpellier", "code_commune": "34172", "departement": "Hérault", "code_departement": "34", "region": "Occitanie", "code_region": "76", "Métropole": "Montpellier" }, "geometry": { "type": "Point", "coordinates": [ 3.86760186079749, 43.594700476684999 ] } },
{ "type": "Feature", "properties": { "type_etablissement": "doctors", "nom_etablissement": null, "commune": "Montpellier", "code_commune": "34172", "departement": "Hérault", "code_departement": "34", "region": "Occitanie", "code_region": "76", "Métropole": "Montpellier" }, "geometry": { "type": "Point", "coordinates": [ 3.86659259583638, 43.599759961078597 ] } },
{ "type": "Feature", "properties": { "type_etablissement": "pharmacy", "nom_etablissement": "Pharmacie Salmon", "commune": "Rennes", "code_commune": "35238", "departement": "Ille-et-Vilaine", "code_departement": "35", "region": "Bretagne", "code_region": "53", "Métropole": "Rennes" }, "geometry": { "type": "Point", "coordinates": [ -1.70878561669247, 48.123356595370197 ] } },
{ "type": "Feature", "properties": { "type_etablissement": "pharmacy", "nom_etablissement": "Pharmacie Macher-Talibart", "commune": "Bruz", "code_commune": "35047", "departement": "Ille-et-Vilaine", "code_departement": "35", "region": "Bretagne", "code_region": "53", "Métropole": "Rennes" }, "geometry": { "type": "Point", "coordinates": [ -1.75874025086404, 48.0289587636397 ] } },
{ "type": "Feature", "properties": { "type_etablissement": "pharmacy", "nom_etablissement": "La Haute Pompignane", "commune": "Castelnau-le-Lez", "code_commune": "34057", "departement": "Hérault", "code_departement": "34", "region": "Occitanie", "code_region": "76", "Métropole": "Montpellier" }, "geometry": { "type": "Point", "coordinates": [ 3.89907573957598, 43.623282850325801 ] } },
{ "type": "Feature", "properties": { "type_etablissement": "doctors", "nom_etablissement": "Christian Plassart", "commune": "Betton", "code_commune": "35024", "departement": "Ille-et-Vilaine", "code_departement": "35", "region": "Bretagne", "code_region": "53", "Métropole": "Rennes" }, "geometry": { "type": "Point", "coordinates": [ -1.64510310150331, 48.181736550973703 ] } },
{ "type": "Feature", "properties": { "type_etablissement": "dentist", "nom_etablissement": "Oudinet Arnaud", "commune": "Betton", "code_commune": "35024", "departement": "Ille-et-Vilaine", "code_departement": "35", "region": "Bretagne", "code_region": "53", "Métropole": "Rennes" }, "geometry": { "type": "Point", "coordinates": [ -1.66351780749937, 48.175222554922399 ] } },
{ "type": "Feature", "properties": { "type_etablissement": "pharmacy", "nom_etablissement": "Pharmacie des Genêts", "commune": "Pont-Péan", "code_commune": "35363", "departement": "Ille-et-Vilaine", "code_departement": "35", "region": "Bretagne", "code_region": "53", "Métropole": "Rennes" }, "geometry": { "type": "Point", "coordinates": [ -1.70336084895857, 48.0131953374365 ] } },
{ "type": "Feature", "properties": { "type_etablissement": "doctors", "nom_etablissement": "Cabinet Ostéopathie", "commune": "Montpellier", "code_commune": "34172", "departement": "Hérault", "code_departement": "34", "region": "Occitanie", "code_region": "76", "Métropole": "Montpellier" }, "geometry": { "type": "Point", "coordinates": [ 3.83816704760403, 43.624376521051801 ] } },
{ "type": "Feature", "properties": { "type_etablissement": "doctors", "nom_etablissement": "IRM Comédie", "commune": "Montpellier", "code_commune": "34172", "departement": "Hérault", "code_departement": "34", "region": "Occitanie", "code_region": "76", "Métropole": "Montpellier" }, "geometry": { "type": "Point", "coordinates": [ 3.88014713909632, 43.6093104691926 ] } },
{ "type": "Feature", "properties": { "type_etablissement": "pharmacy", "nom_etablissement": "Pharmacie Saint-Bruno", "commune": "Grenoble", "code_commune": "38185", "departement": "Isère", "code_departement": "38", "region": "Auvergne-Rhône-Alpes", "code_region": "84", "Métropole": "Grenoble" }, "geometry": { "type": "Point", "coordinates": [ 5.714318190688, 45.188430349317102 ] } },
{ "type": "Feature", "properties": { "type_etablissement": "pharmacy", "nom_etablissement": "Pharmacie du Corum", "commune": "Montpellier", "code_commune": "34172", "departement": "Hérault", "code_departement": "34", "region": "Occitanie", "code_region": "76", "Métropole": "Montpellier" }, "geometry": { "type": "Point", "coordinates": [ 3.87964405726785, 43.6133153425289 ] } },
{ "type": "Feature", "properties": { "type_etablissement": "pharmacy", "nom_etablissement": "Pharmacie des Boulevards", "commune": "Grenoble", "code_commune": "38185", "departement": "Isère", "code_departement": "38", "region": "Auvergne-Rhône-Alpes", "code_region": "84", "Métropole": "Grenoble" }, "geometry": { "type": "Point", "coordinates": [ 5.71680593954991, 45.180142574916196 ] } },
{ "type": "Feature", "properties": { "type_etablissement": "pharmacy", "nom_etablissement": "Pharmacie Julien", "commune": "Saint-Drézéry", "code_commune": "34249", "departement": "Hérault", "code_departement": "34", "region": "Occitanie", "code_region": "76", "Métropole": "Montpellier" }, "geometry": { "type": "Point", "coordinates": [ 3.97983646630021, 43.734441722375102 ] } },
{ "type": "Feature", "properties": { "type_etablissement": "pharmacy", "nom_etablissement": "Pharmacie d'Estanove", "commune": "Montpellier", "code_commune": "34172", "departement": "Hérault", "code_departement": "34", "region": "Occitanie", "code_region": "76", "Métropole": "Montpellier" }, "geometry": { "type": "Point", "coordinates": [ 3.8512876597367, 43.601015821631101 ] } },
{ "type": "Feature", "properties": { "type_etablissement": "pharmacy", "nom_etablissement": "Pharmacie Port Ariane", "commune": "Lattes", "code_commune": "34129", "departement": "Hérault", "code_departement": "34", "region": "Occitanie", "code_region": "76", "Métropole": "Montpellier" }, "geometry": { "type": "Point", "coordinates": [ 3.90067525815857, 43.573551174778601 ] } },
{ "type": "Feature", "properties": { "type_etablissement": "pharmacy", "nom_etablissement": "Pharmacie de l'Hôtel Dieu", "commune": "Rennes", "code_commune": "35238", "departement": "Ille-et-Vilaine", "code_departement": "35", "region": "Bretagne", "code_region": "53", "Métropole": "Rennes" }, "geometry": { "type": "Point", "coordinates": [ -1.68115743890903, 48.118508586393702 ] } },
{ "type": "Feature", "properties": { "type_etablissement": "pharmacy", "nom_etablissement": "Pharmacie des Charmettes", "commune": "Saint-Égrève", "code_commune": "38382", "departement": "Isère", "code_departement": "38", "region": "Auvergne-Rhône-Alpes", "code_region": "84", "Métropole": "Grenoble" }, "geometry": { "type": "Point", "coordinates": [ 5.68640787804375, 45.226351588016598 ] } },
{ "type": "Feature", "properties": { "type_etablissement": "pharmacy", "nom_etablissement": "Pharmacie du Parc Montcalm", "commune": "Montpellier", "code_commune": "34172", "departement": "Hérault", "code_departement": "34", "region": "Occitanie", "code_region": "76", "Métropole": "Montpellier" }, "geometry": { "type": "Point", "coordinates": [ 3.85519278842523, 43.602674264992999 ] } },
{ "type": "Feature", "properties": { "type_etablissement": "clinic", "nom_etablissement": "Centre aide à la santé mentale", "commune": "Montpellier", "code_commune": "34172", "departement": "Hérault", "code_departement": "34", "region": "Occitanie", "code_region": "76", "Métropole": "Montpellier" }, "geometry": { "type": "Point", "coordinates": [ 3.86492032233423, 43.6102424530064 ] } },
{ "type": "Feature", "properties": { "type_etablissement": "doctors", "nom_etablissement": "Clinique vétérinaire", "commune": "Montferrier-sur-Lez", "code_commune": "34169", "departement": "Hérault", "code_departement": "34", "region": "Occitanie", "code_region": "76", "Métropole": "Montpellier" }, "geometry": { "type": "Point", "coordinates": [ 3.86219444360316, 43.670703718986999 ] } },
{ "type": "Feature", "properties": { "type_etablissement": "doctors", "nom_etablissement": "Centre médical", "commune": "Juvignac", "code_commune": "34123", "departement": "Hérault", "code_departement": "34", "region": "Occitanie", "code_region": "76", "Métropole": "Montpellier" }, "geometry": { "type": "Point", "coordinates": [ 3.80931796180434, 43.612519564641602 ] } },
{ "type": "Feature", "properties": { "type_etablissement": "doctors", "nom_etablissement": "Orthophoniste", "commune": "Prades-le-Lez", "code_commune": "34217", "departement": "Hérault", "code_departement": "34", "region": "Occitanie", "code_region": "76", "Métropole": "Montpellier" }, "geometry": { "type": "Point", "coordinates": [ 3.87129869919218, 43.690489536704199 ] } },
{ "type": "Feature", "properties": { "type_etablissement": "pharmacy", "nom_etablissement": "La Grande Pharmacie", "commune": "Pérols", "code_commune": "34198", "departement": "Hérault", "code_departement": "34", "region": "Occitanie", "code_region": "76", "Métropole": "Montpellier" }, "geometry": { "type": "Point", "coordinates": [ 3.95159045843386, 43.5611988478908 ] } },
{ "type": "Feature", "properties": { "type_etablissement": "doctors", "nom_etablissement": "Corenc Kiné", "commune": "Corenc", "code_commune": "38126", "departement": "Isère", "code_departement": "38", "region": "Auvergne-Rhône-Alpes", "code_region": "84", "Métropole": "Grenoble" }, "geometry": { "type": "Point", "coordinates": [ 5.76353982742705, 45.212094725089798 ] } },
{ "type": "Feature", "properties": { "type_etablissement": "doctors", "nom_etablissement": "Dr Claude Courgeon", "commune": "Rennes", "code_commune": "35238", "departement": "Ille-et-Vilaine", "code_departement": "35", "region": "Bretagne", "code_region": "53", "Métropole": "Rennes" }, "geometry": { "type": "Point", "coordinates": [ -1.66645935259911, 48.119551798062602 ] } },
{ "type": "Feature", "properties": { "type_etablissement": "doctors", "nom_etablissement": null, "commune": "Lattes", "code_commune": "34129", "departement": "Hérault", "code_departement": "34", "region": "Occitanie", "code_region": "76", "Métropole": "Montpellier" }, "geometry": { "type": "Point", "coordinates": [ 3.90080023233492, 43.572853129882297 ] } },
{ "type": "Feature", "properties": { "type_etablissement": "pharmacy", "nom_etablissement": "Pharmacie du petit Rochefort", "commune": "Varces-Allières-et-Risset", "code_commune": "38524", "departement": "Isère", "code_departement": "38", "region": "Auvergne-Rhône-Alpes", "code_region": "84", "Métropole": "Grenoble" }, "geometry": { "type": "Point", "coordinates": [ 5.68426227846939, 45.093895389650697 ] } },
{ "type": "Feature", "properties": { "type_etablissement": "doctors", "nom_etablissement": null, "commune": "Grenoble", "code_commune": "38185", "departement": "Isère", "code_departement": "38", "region": "Auvergne-Rhône-Alpes", "code_region": "84", "Métropole": "Grenoble" }, "geometry": { "type": "Point", "coordinates": [ 5.73038655052872, 45.188741150286702 ] } },
{ "type": "Feature", "properties": { "type_etablissement": "nursing_home", "nom_etablissement": null, "commune": "Chartres-de-Bretagne", "code_commune": "35066", "departement": "Ille-et-Vilaine", "code_departement": "35", "region": "Bretagne", "code_region": "53", "Métropole": "Rennes" }, "geometry": { "type": "Point", "coordinates": [ -1.70788582256663, 48.042712805310501 ] } },
{ "type": "Feature", "properties": { "type_etablissement": "clinic", "nom_etablissement": "Centre Médical Forum Santé La Pinède", "commune": "Montpellier", "code_commune": "34172", "departement": "Hérault", "code_departement": "34", "region": "Occitanie", "code_region": "76", "Métropole": "Montpellier" }, "geometry": { "type": "Point", "coordinates": [ 3.81828426465515, 43.6293337349477 ] } },
{ "type": "Feature", "properties": { "type_etablissement": "clinic", "nom_etablissement": "Maison de Santé Claude Rosenzweig", "commune": "Gévezé", "code_commune": "35120", "departement": "Ille-et-Vilaine", "code_departement": "35", "region": "Bretagne", "code_region": "53", "Métropole": "Rennes" }, "geometry": { "type": "Point", "coordinates": [ -1.7932676502009, 48.221901914195598 ] } },
{ "type": "Feature", "properties": { "type_etablissement": "nursing_home", "nom_etablissement": "EHPAD Résidence Noury", "commune": "La Feuillie", "code_commune": "76263", "departement": "Seine-Maritime", "code_departement": "76", "region": "Normandie", "code_region": "28", "Métropole": "Rouen" }, "geometry": { "type": "Point", "coordinates": [ 1.51319107376945, 49.4602550745728 ] } },
{ "type": "Feature", "properties": { "type_etablissement": "dentist", "nom_etablissement": "Théodore Desprairies", "commune": "Montpellier", "code_commune": "34172", "departement": "Hérault", "code_departement": "34", "region": "Occitanie", "code_region": "76", "Métropole": "Montpellier" }, "geometry": { "type": "Point", "coordinates": [ 3.91653692026705, 43.610520480734699 ] } },
{ "type": "Feature", "properties": { "type_etablissement": "hospital", "nom_etablissement": "Les Jardins de Sophia", "commune": "Castelnau-le-Lez", "code_commune": "34057", "departement": "Hérault", "code_departement": "34", "region": "Occitanie", "code_region": "76", "Métropole": "Montpellier" }, "geometry": { "type": "Point", "coordinates": [ 3.90988199306683, 43.6241441118814 ] } },
{ "type": "Feature", "properties": { "type_etablissement": "pharmacy", "nom_etablissement": "Pharmacie du Marché", "commune": "Thorigné-Fouillard", "code_commune": "35334", "departement": "Ille-et-Vilaine", "code_departement": "35", "region": "Bretagne", "code_region": "53", "Métropole": "Rennes" }, "geometry": { "type": "Point", "coordinates": [ -1.58115873565902, 48.155710741619899 ] } },
{ "type": "Feature", "properties": { "type_etablissement": "pharmacy", "nom_etablissement": "Univers Pharmacie", "commune": "Pignan", "code_commune": "34202", "departement": "Hérault", "code_departement": "34", "region": "Occitanie", "code_region": "76", "Métropole": "Montpellier" }, "geometry": { "type": "Point", "coordinates": [ 3.75906166293754, 43.582822816974002 ] } },
{ "type": "Feature", "properties": { "type_etablissement": "doctors", "nom_etablissement": "Cabinet Médical", "commune": "Chantepie", "code_commune": "35055", "departement": "Ille-et-Vilaine", "code_departement": "35", "region": "Bretagne", "code_region": "53", "Métropole": "Rennes" }, "geometry": { "type": "Point", "coordinates": [ -1.61751197173189, 48.088696587557401 ] } },
{ "type": "Feature", "properties": { "type_etablissement": "doctors", "nom_etablissement": null, "commune": "Montpellier", "code_commune": "34172", "departement": "Hérault", "code_departement": "34", "region": "Occitanie", "code_region": "76", "Métropole": "Montpellier" }, "geometry": { "type": "Point", "coordinates": [ 3.82960267039843, 43.614745798124503 ] } },
{ "type": "Feature", "properties": { "type_etablissement": "doctors", "nom_etablissement": "Larguier Josianne (Reflexologie)", "commune": "Montpellier", "code_commune": "34172", "departement": "Hérault", "code_departement": "34", "region": "Occitanie", "code_region": "76", "Métropole": "Montpellier" }, "geometry": { "type": "Point", "coordinates": [ 3.8268351336086, 43.614807991846099 ] } },
{ "type": "Feature", "properties": { "type_etablissement": "hospital", "nom_etablissement": "Centre hospitalier du Rouvray", "commune": "Sotteville-lès-Rouen", "code_commune": "76681", "departement": "Seine-Maritime", "code_departement": "76", "region": "Normandie", "code_region": "28", "Métropole": "Rouen" }, "geometry": { "type": "Point", "coordinates": [ 1.0943173166022, 49.399000858589602 ] } },
{ "type": "Feature", "properties": { "type_etablissement": "pharmacy", "nom_etablissement": "Pharmacie du Robec", "commune": "Darnétal", "code_commune": "76212", "departement": "Seine-Maritime", "code_departement": "76", "region": "Normandie", "code_region": "28", "Métropole": "Rouen" }, "geometry": { "type": "Point", "coordinates": [ 1.14775744220305, 49.444771700326498 ] } },
{ "type": "Feature", "properties": { "type_etablissement": "doctors", "nom_etablissement": "Michel Bersin", "commune": "Duclair", "code_commune": "76222", "departement": "Seine-Maritime", "code_departement": "76", "region": "Normandie", "code_region": "28", "Métropole": "Rouen" }, "geometry": { "type": "Point", "coordinates": [ 0.875124535424569, 49.483199451671503 ] } },
{ "type": "Feature", "properties": { "type_etablissement": "doctors", "nom_etablissement": "Clinique Les Granges", "commune": "Échirolles", "code_commune": "38151", "departement": "Isère", "code_departement": "38", "region": "Auvergne-Rhône-Alpes", "code_region": "84", "Métropole": "Grenoble" }, "geometry": { "type": "Point", "coordinates": [ 5.72840309037561, 45.152490175057103 ] } },
{ "type": "Feature", "properties": { "type_etablissement": "pharmacy", "nom_etablissement": "Pharmacie de la Croix Desilles", "commune": "Saint-Malo", "code_commune": "35288", "departement": "Ille-et-Vilaine", "code_departement": "35", "region": "Bretagne", "code_region": "53", "Métropole": "Rennes" }, "geometry": { "type": "Point", "coordinates": [ -1.96871497198762, 48.658438937599399 ] } },
{ "type": "Feature", "properties": { "type_etablissement": "doctors", "nom_etablissement": "Centre Médical 7/7 de Chantepie", "commune": "Chantepie", "code_commune": "35055", "departement": "Ille-et-Vilaine", "code_departement": "35", "region": "Bretagne", "code_region": "53", "Métropole": "Rennes" }, "geometry": { "type": "Point", "coordinates": [ -1.60454030601861, 48.082769324728197 ] } },
{ "type": "Feature", "properties": { "type_etablissement": "pharmacy", "nom_etablissement": "Pharmacie de la Martelle", "commune": "Montpellier", "code_commune": "34172", "departement": "Hérault", "code_departement": "34", "region": "Occitanie", "code_region": "76", "Métropole": "Montpellier" }, "geometry": { "type": "Point", "coordinates": [ 3.83715526807197, 43.6067557489243 ] } },
{ "type": "Feature", "properties": { "type_etablissement": "clinic", "nom_etablissement": "Centre Médical Les Aubes", "commune": "Montpellier", "code_commune": "34172", "departement": "Hérault", "code_departement": "34", "region": "Occitanie", "code_region": "76", "Métropole": "Montpellier" }, "geometry": { "type": "Point", "coordinates": [ 3.89227843519743, 43.619605625584498 ] } },
{ "type": "Feature", "properties": { "type_etablissement": "dentist", "nom_etablissement": "Centre Dentaire Dentosoin", "commune": "Montpellier", "code_commune": "34172", "departement": "Hérault", "code_departement": "34", "region": "Occitanie", "code_region": "76", "Métropole": "Montpellier" }, "geometry": { "type": "Point", "coordinates": [ 3.87213881734726, 43.594458323502401 ] } },
{ "type": "Feature", "properties": { "type_etablissement": "dentist", "nom_etablissement": "Docali", "commune": "Rouen", "code_commune": "76540", "departement": "Seine-Maritime", "code_departement": "76", "region": "Normandie", "code_region": "28", "Métropole": "Rouen" }, "geometry": { "type": "Point", "coordinates": [ 1.0934064870855, 49.439358057499099 ] } },
{ "type": "Feature", "properties": { "type_etablissement": "doctors", "nom_etablissement": null, "commune": "Montpellier", "code_commune": "34172", "departement": "Hérault", "code_departement": "34", "region": "Occitanie", "code_region": "76", "Métropole": "Montpellier" }, "geometry": { "type": "Point", "coordinates": [ 3.90843379919309, 43.614792233868101 ] } },
{ "type": "Feature", "properties": { "type_etablissement": "doctors", "nom_etablissement": "François Morton", "commune": "Grenoble", "code_commune": "38185", "departement": "Isère", "code_departement": "38", "region": "Auvergne-Rhône-Alpes", "code_region": "84", "Métropole": "Grenoble" }, "geometry": { "type": "Point", "coordinates": [ 5.72038249763403, 45.183812339763598 ] } },
{ "type": "Feature", "properties": { "type_etablissement": "pharmacy", "nom_etablissement": "Pharmacie de l'Ondaine", "commune": "Firminy", "code_commune": "42095", "departement": "Loire", "code_departement": "42", "region": "Auvergne-Rhône-Alpes", "code_region": "84", "Métropole": "Saint-Étienne" }, "geometry": { "type": "Point", "coordinates": [ 4.28942599950844, 45.390943584054597 ] } },
{ "type": "Feature", "properties": { "type_etablissement": "doctors", "nom_etablissement": "Docteur Bernard Jay", "commune": "Grenoble", "code_commune": "38185", "departement": "Isère", "code_departement": "38", "region": "Auvergne-Rhône-Alpes", "code_region": "84", "Métropole": "Grenoble" }, "geometry": { "type": "Point", "coordinates": [ 5.70605816038665, 45.1871789311732 ] } },
{ "type": "Feature", "properties": { "type_etablissement": "hospital", "nom_etablissement": "Centre Hospitalier Guillaume Régnier", "commune": "Rennes", "code_commune": "35238", "departement": "Ille-et-Vilaine", "code_departement": "35", "region": "Bretagne", "code_region": "53", "Métropole": "Rennes" }, "geometry": { "type": "Point", "coordinates": [ -1.65197376295844, 48.112700020264299 ] } },
{ "type": "Feature", "properties": { "type_etablissement": "nursing_home", "nom_etablissement": "Résidence Bois d'Artas", "commune": "Grenoble", "code_commune": "38185", "departement": "Isère", "code_departement": "38", "region": "Auvergne-Rhône-Alpes", "code_region": "84", "Métropole": "Grenoble" }, "geometry": { "type": "Point", "coordinates": [ 5.72128534351862, 45.183226667308503 ] } },
{ "type": "Feature", "properties": { "type_etablissement": "hospital", "nom_etablissement": "Pôle Saint-Hélier", "commune": "Rennes", "code_commune": "35238", "departement": "Ille-et-Vilaine", "code_departement": "35", "region": "Bretagne", "code_region": "53", "Métropole": "Rennes" }, "geometry": { "type": "Point", "coordinates": [ -1.66980367881915, 48.106089152429199 ] } },
{ "type": "Feature", "properties": { "type_etablissement": "pharmacy", "nom_etablissement": "Pharmacie des Aiguinards", "commune": "Meylan", "code_commune": "38229", "departement": "Isère", "code_departement": "38", "region": "Auvergne-Rhône-Alpes", "code_region": "84", "Métropole": "Grenoble" }, "geometry": { "type": "Point", "coordinates": [ 5.76356889651296, 45.207614657184898 ] } },
{ "type": "Feature", "properties": { "type_etablissement": "nursing_home", "nom_etablissement": "Ehpad Les Corbières", "commune": "Saint-Malo", "code_commune": "35288", "departement": "Ille-et-Vilaine", "code_departement": "35", "region": "Bretagne", "code_region": "53", "Métropole": "Rennes" }, "geometry": { "type": "Point", "coordinates": [ -2.01939447314564, 48.633023749891798 ] } },
{ "type": "Feature", "properties": { "type_etablissement": "doctors", "nom_etablissement": "Denis Prudhomme", "commune": "Rouen", "code_commune": "76540", "departement": "Seine-Maritime", "code_departement": "76", "region": "Normandie", "code_region": "28", "Métropole": "Rouen" }, "geometry": { "type": "Point", "coordinates": [ 1.08744443935819, 49.436273852407297 ] } },
{ "type": "Feature", "properties": { "type_etablissement": "dentist", "nom_etablissement": "Centre d'Orthodontie de Saint-Chamond", "commune": "Saint-Chamond", "code_commune": "42207", "departement": "Loire", "code_departement": "42", "region": "Auvergne-Rhône-Alpes", "code_region": "84", "Métropole": "Saint-Étienne" }, "geometry": { "type": "Point", "coordinates": [ 4.50116829637327, 45.469727941829603 ] } },
{ "type": "Feature", "properties": { "type_etablissement": "pharmacy", "nom_etablissement": "Pharmacie du Théâtre", "commune": "Saint-Malo", "code_commune": "35288", "departement": "Ille-et-Vilaine", "code_departement": "35", "region": "Bretagne", "code_region": "53", "Métropole": "Rennes" }, "geometry": { "type": "Point", "coordinates": [ -2.01625084036041, 48.637356271823201 ] } },
{ "type": "Feature", "properties": { "type_etablissement": "nursing_home", "nom_etablissement": "Établissement d'Hébergement pour Personnes Âgées dépendantes Sacré Coeur d'Ernemont", "commune": "Rouen", "code_commune": "76540", "departement": "Seine-Maritime", "code_departement": "76", "region": "Normandie", "code_region": "28", "Métropole": "Rouen" }, "geometry": { "type": "Point", "coordinates": [ 1.10075682943545, 49.449002526747599 ] } },
{ "type": "Feature", "properties": { "type_etablissement": "pharmacy", "nom_etablissement": "Pharmacie des Bocquets", "commune": "Bois-Guillaume", "code_commune": "76108", "departement": "Seine-Maritime", "code_departement": "76", "region": "Normandie", "code_region": "28", "Métropole": "Rouen" }, "geometry": { "type": "Point", "coordinates": [ 1.10703738948337, 49.4760714639513 ] } },
{ "type": "Feature", "properties": { "type_etablissement": "nursing_home", "nom_etablissement": "Établissement d'hébergement pour personnes âgées dépendantes Centre Durécu-Lavoisier", "commune": "Darnétal", "code_commune": "76212", "departement": "Seine-Maritime", "code_departement": "76", "region": "Normandie", "code_region": "28", "Métropole": "Rouen" }, "geometry": { "type": "Point", "coordinates": [ 1.14907573520273, 49.445138050289501 ] } },
{ "type": "Feature", "properties": { "type_etablissement": "pharmacy", "nom_etablissement": "Pharmacie Aristide Briand", "commune": "Petit-Couronne", "code_commune": "76497", "departement": "Seine-Maritime", "code_departement": "76", "region": "Normandie", "code_region": "28", "Métropole": "Rouen" }, "geometry": { "type": "Point", "coordinates": [ 1.02341147679735, 49.389707267317497 ] } },
{ "type": "Feature", "properties": { "type_etablissement": "doctors", "nom_etablissement": "Cabinet de kinésithérapie", "commune": "Grenoble", "code_commune": "38185", "departement": "Isère", "code_departement": "38", "region": "Auvergne-Rhône-Alpes", "code_region": "84", "Métropole": "Grenoble" }, "geometry": { "type": "Point", "coordinates": [ 5.72060445043007, 45.186192297350701 ] } },
{ "type": "Feature", "properties": { "type_etablissement": "doctors", "nom_etablissement": null, "commune": "Grenoble", "code_commune": "38185", "departement": "Isère", "code_departement": "38", "region": "Auvergne-Rhône-Alpes", "code_region": "84", "Métropole": "Grenoble" }, "geometry": { "type": "Point", "coordinates": [ 5.72783082443209, 45.182516916628202 ] } },
{ "type": "Feature", "properties": { "type_etablissement": "doctors", "nom_etablissement": "Coudray Henri", "commune": "Rennes", "code_commune": "35238", "departement": "Ille-et-Vilaine", "code_departement": "35", "region": "Bretagne", "code_region": "53", "Métropole": "Rennes" }, "geometry": { "type": "Point", "coordinates": [ -1.66037073813385, 48.110971746698098 ] } },
{ "type": "Feature", "properties": { "type_etablissement": "doctors", "nom_etablissement": "Houdayer Carole", "commune": "Rennes", "code_commune": "35238", "departement": "Ille-et-Vilaine", "code_departement": "35", "region": "Bretagne", "code_region": "53", "Métropole": "Rennes" }, "geometry": { "type": "Point", "coordinates": [ -1.65972105681888, 48.110388282418199 ] } },
{ "type": "Feature", "properties": { "type_etablissement": "pharmacy", "nom_etablissement": null, "commune": "Corps-Nuds", "code_commune": "35088", "departement": "Ille-et-Vilaine", "code_departement": "35", "region": "Bretagne", "code_region": "53", "Métropole": "Rennes" }, "geometry": { "type": "Point", "coordinates": [ -1.58465574948204, 47.977587252555701 ] } },
{ "type": "Feature", "properties": { "type_etablissement": "dentist", "nom_etablissement": "Dr. Simon Prunet, Dr Harrison Rocca", "commune": "Fontanil-Cornillon", "code_commune": "38170", "departement": "Isère", "code_departement": "38", "region": "Auvergne-Rhône-Alpes", "code_region": "84", "Métropole": "Grenoble" }, "geometry": { "type": "Point", "coordinates": [ 5.66950535119921, 45.246531019906797 ] } },
{ "type": "Feature", "properties": { "type_etablissement": "pharmacy", "nom_etablissement": "Pharmacie des Potiers", "commune": "Noyal-Châtillon-sur-Seiche", "code_commune": "35206", "departement": "Ille-et-Vilaine", "code_departement": "35", "region": "Bretagne", "code_region": "53", "Métropole": "Rennes" }, "geometry": { "type": "Point", "coordinates": [ -1.6703350608075, 48.041606384976298 ] } },
{ "type": "Feature", "properties": { "type_etablissement": "pharmacy", "nom_etablissement": "Lafayette", "commune": "Montpellier", "code_commune": "34172", "departement": "Hérault", "code_departement": "34", "region": "Occitanie", "code_region": "76", "Métropole": "Montpellier" }, "geometry": { "type": "Point", "coordinates": [ 3.87303199294942, 43.608829850864602 ] } },
{ "type": "Feature", "properties": { "type_etablissement": "pharmacy", "nom_etablissement": "Pharmacie Daudet", "commune": "Saint-Martin-d'Hères", "code_commune": "38421", "departement": "Isère", "code_departement": "38", "region": "Auvergne-Rhône-Alpes", "code_region": "84", "Métropole": "Grenoble" }, "geometry": { "type": "Point", "coordinates": [ 5.76668538805001, 45.1771158696802 ] } },
{ "type": "Feature", "properties": { "type_etablissement": "dentist", "nom_etablissement": "Cabinet dentaire Métairie & David", "commune": "Quincampoix", "code_commune": "76517", "departement": "Seine-Maritime", "code_departement": "76", "region": "Normandie", "code_region": "28", "Métropole": "Rouen" }, "geometry": { "type": "Point", "coordinates": [ 1.18680729143347, 49.5220684987205 ] } },
{ "type": "Feature", "properties": { "type_etablissement": "dentist", "nom_etablissement": "Centre Dentaire Rive Droite", "commune": "Rouen", "code_commune": "76540", "departement": "Seine-Maritime", "code_departement": "76", "region": "Normandie", "code_region": "28", "Métropole": "Rouen" }, "geometry": { "type": "Point", "coordinates": [ 1.09672186506677, 49.439053291499697 ] } },
{ "type": "Feature", "properties": { "type_etablissement": "dentist", "nom_etablissement": "Espace Santé Le Sourire", "commune": "Lunel", "code_commune": "34145", "departement": "Hérault", "code_departement": "34", "region": "Occitanie", "code_region": "76", "Métropole": "Montpellier" }, "geometry": { "type": "Point", "coordinates": [ 4.1304406585032, 43.677969152657802 ] } },
{ "type": "Feature", "properties": { "type_etablissement": "doctors", "nom_etablissement": "Dr Régine Rivière", "commune": "Lunel", "code_commune": "34145", "departement": "Hérault", "code_departement": "34", "region": "Occitanie", "code_region": "76", "Métropole": "Montpellier" }, "geometry": { "type": "Point", "coordinates": [ 4.1307097175951, 43.677128447769498 ] } },
{ "type": "Feature", "properties": { "type_etablissement": "doctors", "nom_etablissement": null, "commune": "Saint-Martin-du-Vivier", "code_commune": "76617", "departement": "Seine-Maritime", "code_departement": "76", "region": "Normandie", "code_region": "28", "Métropole": "Rouen" }, "geometry": { "type": "Point", "coordinates": [ 1.14782649635376, 49.487216126229903 ] } },
{ "type": "Feature", "properties": { "type_etablissement": "doctors", "nom_etablissement": "Ophtalmed", "commune": "Rouen", "code_commune": "76540", "departement": "Seine-Maritime", "code_departement": "76", "region": "Normandie", "code_region": "28", "Métropole": "Rouen" }, "geometry": { "type": "Point", "coordinates": [ 1.08438011028088, 49.430370968397099 ] } },
{ "type": "Feature", "properties": { "type_etablissement": "nursing_home", "nom_etablissement": "Résidence Beausoleil", "commune": "Cesson-Sévigné", "code_commune": "35051", "departement": "Ille-et-Vilaine", "code_departement": "35", "region": "Bretagne", "code_region": "53", "Métropole": "Rennes" }, "geometry": { "type": "Point", "coordinates": [ -1.61056613851516, 48.120685625190497 ] } },
{ "type": "Feature", "properties": { "type_etablissement": "hospital", "nom_etablissement": "Clinique du Cèdre", "commune": "Bois-Guillaume", "code_commune": "76108", "departement": "Seine-Maritime", "code_departement": "76", "region": "Normandie", "code_region": "28", "Métropole": "Rouen" }, "geometry": { "type": "Point", "coordinates": [ 1.11257084282346, 49.464121352145199 ] } },
{ "type": "Feature", "properties": { "type_etablissement": "clinic", "nom_etablissement": "Kinés", "commune": "Montpellier", "code_commune": "34172", "departement": "Hérault", "code_departement": "34", "region": "Occitanie", "code_region": "76", "Métropole": "Montpellier" }, "geometry": { "type": "Point", "coordinates": [ 3.89159229260363, 43.620179785951898 ] } },
{ "type": "Feature", "properties": { "type_etablissement": "doctors", "nom_etablissement": "Yves Paranthoine", "commune": "Rennes", "code_commune": "35238", "departement": "Ille-et-Vilaine", "code_departement": "35", "region": "Bretagne", "code_region": "53", "Métropole": "Rennes" }, "geometry": { "type": "Point", "coordinates": [ -1.65184391185448, 48.117458333926002 ] } },
{ "type": "Feature", "properties": { "type_etablissement": "doctors", "nom_etablissement": null, "commune": "Mont-Saint-Aignan", "code_commune": "76451", "departement": "Seine-Maritime", "code_departement": "76", "region": "Normandie", "code_region": "28", "Métropole": "Rouen" }, "geometry": { "type": "Point", "coordinates": [ 1.08151332085359, 49.470451397873497 ] } },
{ "type": "Feature", "properties": { "type_etablissement": "doctors", "nom_etablissement": null, "commune": "Grenoble", "code_commune": "38185", "departement": "Isère", "code_departement": "38", "region": "Auvergne-Rhône-Alpes", "code_region": "84", "Métropole": "Grenoble" }, "geometry": { "type": "Point", "coordinates": [ 5.73299382532988, 45.186514581527703 ] } },
{ "type": "Feature", "properties": { "type_etablissement": "doctors", "nom_etablissement": "Docteur Rachid Yachou", "commune": "Saint-Étienne", "code_commune": "42218", "departement": "Loire", "code_departement": "42", "region": "Auvergne-Rhône-Alpes", "code_region": "84", "Métropole": "Saint-Étienne" }, "geometry": { "type": "Point", "coordinates": [ 4.38133398690118, 45.438612640868797 ] } },
{ "type": "Feature", "properties": { "type_etablissement": "doctors", "nom_etablissement": "Docteur Nicolas Ruel", "commune": "Saint-Étienne", "code_commune": "42218", "departement": "Loire", "code_departement": "42", "region": "Auvergne-Rhône-Alpes", "code_region": "84", "Métropole": "Saint-Étienne" }, "geometry": { "type": "Point", "coordinates": [ 4.40219034129171, 45.439906219985602 ] } },
{ "type": "Feature", "properties": { "type_etablissement": "doctors", "nom_etablissement": "Paul Morvan", "commune": "Rennes", "code_commune": "35238", "departement": "Ille-et-Vilaine", "code_departement": "35", "region": "Bretagne", "code_region": "53", "Métropole": "Rennes" }, "geometry": { "type": "Point", "coordinates": [ -1.68183788180863, 48.1184264437425 ] } },
{ "type": "Feature", "properties": { "type_etablissement": "pharmacy", "nom_etablissement": "Pharmacie de la Mosson", "commune": "Montpellier", "code_commune": "34172", "departement": "Hérault", "code_departement": "34", "region": "Occitanie", "code_region": "76", "Métropole": "Montpellier" }, "geometry": { "type": "Point", "coordinates": [ 3.81697759638141, 43.620680939942602 ] } },
{ "type": "Feature", "properties": { "type_etablissement": "doctors", "nom_etablissement": "Julien Hernandez K2S", "commune": "Castelnau-le-Lez", "code_commune": "34057", "departement": "Hérault", "code_departement": "34", "region": "Occitanie", "code_region": "76", "Métropole": "Montpellier" }, "geometry": { "type": "Point", "coordinates": [ 3.90614302505577, 43.631024795191998 ] } },
{ "type": "Feature", "properties": { "type_etablissement": "doctors", "nom_etablissement": "Cabinet de Pneumologie", "commune": "Saint-Priest-en-Jarez", "code_commune": "42275", "departement": "Loire", "code_departement": "42", "region": "Auvergne-Rhône-Alpes", "code_region": "84", "Métropole": "Saint-Étienne" }, "geometry": { "type": "Point", "coordinates": [ 4.36214496068993, 45.477744058748598 ] } },
{ "type": "Feature", "properties": { "type_etablissement": "doctors", "nom_etablissement": "Office Santé Hôtel-Dieu", "commune": "Rennes", "code_commune": "35238", "departement": "Ille-et-Vilaine", "code_departement": "35", "region": "Bretagne", "code_region": "53", "Métropole": "Rennes" }, "geometry": { "type": "Point", "coordinates": [ -1.67986451140077, 48.117539425640999 ] } },
{ "type": "Feature", "properties": { "type_etablissement": "nursing_home", "nom_etablissement": "Centre Mutualiste des Handicapés", "commune": "Feurs", "code_commune": "42094", "departement": "Loire", "code_departement": "42", "region": "Auvergne-Rhône-Alpes", "code_region": "84", "Métropole": "Saint-Étienne" }, "geometry": { "type": "Point", "coordinates": [ 4.22209365677442, 45.729235110128798 ] } },
{ "type": "Feature", "properties": { "type_etablissement": "nursing_home", "nom_etablissement": "EHPAD Le Chant du Ravinson", "commune": "Saint-Georges-de-Commiers", "code_commune": "38388", "departement": "Isère", "code_departement": "38", "region": "Auvergne-Rhône-Alpes", "code_region": "84", "Métropole": "Grenoble" }, "geometry": { "type": "Point", "coordinates": [ 5.70974052021319, 45.047169486908899 ] } },
{ "type": "Feature", "properties": { "type_etablissement": "nursing_home", "nom_etablissement": "EHPAD Les Petites Sœurs des Pauvres", "commune": "Montpellier", "code_commune": "34172", "departement": "Hérault", "code_departement": "34", "region": "Occitanie", "code_region": "76", "Métropole": "Montpellier" }, "geometry": { "type": "Point", "coordinates": [ 3.87688881253991, 43.616452660802103 ] } },
{ "type": "Feature", "properties": { "type_etablissement": "hospital", "nom_etablissement": "Hôpital de la Croix-Rouge", "commune": "Bois-Guillaume", "code_commune": "76108", "departement": "Seine-Maritime", "code_departement": "76", "region": "Normandie", "code_region": "28", "Métropole": "Rouen" }, "geometry": { "type": "Point", "coordinates": [ 1.11124282539839, 49.476806242205797 ] } },
{ "type": "Feature", "properties": { "type_etablissement": "nursing_home", "nom_etablissement": "Résidence de la Croix de l'Orme", "commune": "Saint-Étienne", "code_commune": "42218", "departement": "Loire", "code_departement": "42", "region": "Auvergne-Rhône-Alpes", "code_region": "84", "Métropole": "Saint-Étienne" }, "geometry": { "type": "Point", "coordinates": [ 4.3794437381843, 45.408223892173602 ] } },
{ "type": "Feature", "properties": { "type_etablissement": "hospital", "nom_etablissement": "Clinique Saint-Hilaire", "commune": "Rouen", "code_commune": "76540", "departement": "Seine-Maritime", "code_departement": "76", "region": "Normandie", "code_region": "28", "Métropole": "Rouen" }, "geometry": { "type": "Point", "coordinates": [ 1.11411294578561, 49.4413809608374 ] } },
{ "type": "Feature", "properties": { "type_etablissement": "nursing_home", "nom_etablissement": "Ehpad Mishkane", "commune": "Bois-l'Évêque", "code_commune": "76111", "departement": "Seine-Maritime", "code_departement": "76", "region": "Normandie", "code_region": "28", "Métropole": "Rouen" }, "geometry": { "type": "Point", "coordinates": [ 1.2663244196976, 49.459791861271398 ] } },
{ "type": "Feature", "properties": { "type_etablissement": "hospital", "nom_etablissement": "Hôpital Privé de la Loire", "commune": "Saint-Étienne", "code_commune": "42218", "departement": "Loire", "code_departement": "42", "region": "Auvergne-Rhône-Alpes", "code_region": "84", "Métropole": "Saint-Étienne" }, "geometry": { "type": "Point", "coordinates": [ 4.41797271192233, 45.4282748475893 ] } },
{ "type": "Feature", "properties": { "type_etablissement": "pharmacy", "nom_etablissement": "Pharmacie du Centre", "commune": "Vendargues", "code_commune": "34327", "departement": "Hérault", "code_departement": "34", "region": "Occitanie", "code_region": "76", "Métropole": "Montpellier" }, "geometry": { "type": "Point", "coordinates": [ 3.97087040698315, 43.656998841670003 ] } },
{ "type": "Feature", "properties": { "type_etablissement": "doctors", "nom_etablissement": "Osthéopathe Floriane Millon", "commune": "Lavérune", "code_commune": "34134", "departement": "Hérault", "code_departement": "34", "region": "Occitanie", "code_region": "76", "Métropole": "Montpellier" }, "geometry": { "type": "Point", "coordinates": [ 3.8125197649976, 43.583229423096903 ] } },
{ "type": "Feature", "properties": { "type_etablissement": "doctors", "nom_etablissement": "Kiné", "commune": "Prades-le-Lez", "code_commune": "34217", "departement": "Hérault", "code_departement": "34", "region": "Occitanie", "code_region": "76", "Métropole": "Montpellier" }, "geometry": { "type": "Point", "coordinates": [ 3.87038507174626, 43.690241097094201 ] } },
{ "type": "Feature", "properties": { "type_etablissement": "hospital", "nom_etablissement": "Clinique de la Côte d’Émeraude", "commune": "Saint-Malo", "code_commune": "35288", "departement": "Ille-et-Vilaine", "code_departement": "35", "region": "Bretagne", "code_region": "53", "Métropole": "Rennes" }, "geometry": { "type": "Point", "coordinates": [ -1.98319589398863, 48.6257073227261 ] } },
{ "type": "Feature", "properties": { "type_etablissement": "pharmacy", "nom_etablissement": "Pharmacie de la Cougourlude", "commune": "Lattes", "code_commune": "34129", "departement": "Hérault", "code_departement": "34", "region": "Occitanie", "code_region": "76", "Métropole": "Montpellier" }, "geometry": { "type": "Point", "coordinates": [ 3.91480052520564, 43.573376160640301 ] } },
{ "type": "Feature", "properties": { "type_etablissement": "doctors", "nom_etablissement": "Espace santé de Veurey-Voroize", "commune": "Veurey-Voroize", "code_commune": "38540", "departement": "Isère", "code_departement": "38", "region": "Auvergne-Rhône-Alpes", "code_region": "84", "Métropole": "Grenoble" }, "geometry": { "type": "Point", "coordinates": [ 5.61512117473053, 45.2720713276316 ] } },
{ "type": "Feature", "properties": { "type_etablissement": "clinic", "nom_etablissement": "Pôle autonomie santé", "commune": "Lattes", "code_commune": "34129", "departement": "Hérault", "code_departement": "34", "region": "Occitanie", "code_region": "76", "Métropole": "Montpellier" }, "geometry": { "type": "Point", "coordinates": [ 3.92482846646332, 43.5835620591522 ] } },
{ "type": "Feature", "properties": { "type_etablissement": "doctors", "nom_etablissement": "Groupe médical du Gros Chêne", "commune": "Rennes", "code_commune": "35238", "departement": "Ille-et-Vilaine", "code_departement": "35", "region": "Bretagne", "code_region": "53", "Métropole": "Rennes" }, "geometry": { "type": "Point", "coordinates": [ -1.66491867497678, 48.126501066345703 ] } },
{ "type": "Feature", "properties": { "type_etablissement": "doctors", "nom_etablissement": "La cour du bien-être", "commune": "Grenoble", "code_commune": "38185", "departement": "Isère", "code_departement": "38", "region": "Auvergne-Rhône-Alpes", "code_region": "84", "Métropole": "Grenoble" }, "geometry": { "type": "Point", "coordinates": [ 5.72076295221911, 45.189186229345303 ] } },
{ "type": "Feature", "properties": { "type_etablissement": "doctors", "nom_etablissement": "Centre d'Ophtalmologie du Dauphiné", "commune": "Grenoble", "code_commune": "38185", "departement": "Isère", "code_departement": "38", "region": "Auvergne-Rhône-Alpes", "code_region": "84", "Métropole": "Grenoble" }, "geometry": { "type": "Point", "coordinates": [ 5.72584448101804, 45.188433785897402 ] } },
{ "type": "Feature", "properties": { "type_etablissement": "pharmacy", "nom_etablissement": "Pharmacie de Maurepas", "commune": "Rennes", "code_commune": "35238", "departement": "Ille-et-Vilaine", "code_departement": "35", "region": "Bretagne", "code_region": "53", "Métropole": "Rennes" }, "geometry": { "type": "Point", "coordinates": [ -1.66155468195711, 48.122525697308603 ] } },
{ "type": "Feature", "properties": { "type_etablissement": "pharmacy", "nom_etablissement": "Pharmacie des Trois Tours", "commune": "Grenoble", "code_commune": "38185", "departement": "Isère", "code_departement": "38", "region": "Auvergne-Rhône-Alpes", "code_region": "84", "Métropole": "Grenoble" }, "geometry": { "type": "Point", "coordinates": [ 5.73560629691102, 45.196164666651399 ] } },
{ "type": "Feature", "properties": { "type_etablissement": "pharmacy", "nom_etablissement": "Pharmacie de la Maladière", "commune": "L'Horme", "code_commune": "42110", "departement": "Loire", "code_departement": "42", "region": "Auvergne-Rhône-Alpes", "code_region": "84", "Métropole": "Saint-Étienne" }, "geometry": { "type": "Point", "coordinates": [ 4.53531273332186, 45.483651372648197 ] } },
{ "type": "Feature", "properties": { "type_etablissement": "doctors", "nom_etablissement": null, "commune": "Saint-Étienne", "code_commune": "42218", "departement": "Loire", "code_departement": "42", "region": "Auvergne-Rhône-Alpes", "code_region": "84", "Métropole": "Saint-Étienne" }, "geometry": { "type": "Point", "coordinates": [ 4.41984506012707, 45.4193886621213 ] } },
{ "type": "Feature", "properties": { "type_etablissement": "pharmacy", "nom_etablissement": "Pharmacie Sauvaire-Vianes", "commune": "Montpellier", "code_commune": "34172", "departement": "Hérault", "code_departement": "34", "region": "Occitanie", "code_region": "76", "Métropole": "Montpellier" }, "geometry": { "type": "Point", "coordinates": [ 3.88062356647271, 43.602853721540001 ] } },
{ "type": "Feature", "properties": { "type_etablissement": "pharmacy", "nom_etablissement": "Pharmacie de Maurin", "commune": "Montpellier", "code_commune": "34172", "departement": "Hérault", "code_departement": "34", "region": "Occitanie", "code_region": "76", "Métropole": "Montpellier" }, "geometry": { "type": "Point", "coordinates": [ 3.87418836031125, 43.591757841937898 ] } },
{ "type": "Feature", "properties": { "type_etablissement": "pharmacy", "nom_etablissement": "Pharmacie Bonnier Chauvin-Soyer", "commune": "Montpellier", "code_commune": "34172", "departement": "Hérault", "code_departement": "34", "region": "Occitanie", "code_region": "76", "Métropole": "Montpellier" }, "geometry": { "type": "Point", "coordinates": [ 3.86680792692891, 43.592558984243198 ] } },
{ "type": "Feature", "properties": { "type_etablissement": "doctors", "nom_etablissement": "Centre Médical", "commune": "Montpellier", "code_commune": "34172", "departement": "Hérault", "code_departement": "34", "region": "Occitanie", "code_region": "76", "Métropole": "Montpellier" }, "geometry": { "type": "Point", "coordinates": [ 3.86328777905314, 43.596720599168897 ] } },
{ "type": "Feature", "properties": { "type_etablissement": "pharmacy", "nom_etablissement": "Pharmacie Saint-Paul", "commune": "Montpellier", "code_commune": "34172", "departement": "Hérault", "code_departement": "34", "region": "Occitanie", "code_region": "76", "Métropole": "Montpellier" }, "geometry": { "type": "Point", "coordinates": [ 3.8210485191147, 43.631170137392999 ] } },
{ "type": "Feature", "properties": { "type_etablissement": "doctors", "nom_etablissement": "Cabinet Médecine Générale", "commune": "Bruz", "code_commune": "35047", "departement": "Ille-et-Vilaine", "code_departement": "35", "region": "Bretagne", "code_region": "53", "Métropole": "Rennes" }, "geometry": { "type": "Point", "coordinates": [ -1.74049787679721, 48.025074673528202 ] } },
{ "type": "Feature", "properties": { "type_etablissement": "pharmacy", "nom_etablissement": "Pharmacie du Vercors", "commune": "Grenoble", "code_commune": "38185", "departement": "Isère", "code_departement": "38", "region": "Auvergne-Rhône-Alpes", "code_region": "84", "Métropole": "Grenoble" }, "geometry": { "type": "Point", "coordinates": [ 5.71146599667611, 45.1885771164416 ] } },
{ "type": "Feature", "properties": { "type_etablissement": "doctors", "nom_etablissement": "SOS Médecins", "commune": "Rennes", "code_commune": "35238", "departement": "Ille-et-Vilaine", "code_departement": "35", "region": "Bretagne", "code_region": "53", "Métropole": "Rennes" }, "geometry": { "type": "Point", "coordinates": [ -1.70903455921672, 48.104000350190603 ] } },
{ "type": "Feature", "properties": { "type_etablissement": "doctors", "nom_etablissement": null, "commune": "Montpellier", "code_commune": "34172", "departement": "Hérault", "code_departement": "34", "region": "Occitanie", "code_region": "76", "Métropole": "Montpellier" }, "geometry": { "type": "Point", "coordinates": [ 3.88084476489746, 43.615987828536703 ] } },
{ "type": "Feature", "properties": { "type_etablissement": "pharmacy", "nom_etablissement": "Pharmacie Cases-Rouviere", "commune": "Montpellier", "code_commune": "34172", "departement": "Hérault", "code_departement": "34", "region": "Occitanie", "code_region": "76", "Métropole": "Montpellier" }, "geometry": { "type": "Point", "coordinates": [ 3.88054854843932, 43.628043016957001 ] } },
{ "type": "Feature", "properties": { "type_etablissement": "pharmacy", "nom_etablissement": "Pharmacie du Drugstore", "commune": "Rouen", "code_commune": "76540", "departement": "Seine-Maritime", "code_departement": "76", "region": "Normandie", "code_region": "28", "Métropole": "Rouen" }, "geometry": { "type": "Point", "coordinates": [ 1.09573238139714, 49.443037545354201 ] } },
{ "type": "Feature", "properties": { "type_etablissement": "doctors", "nom_etablissement": null, "commune": "Montpellier", "code_commune": "34172", "departement": "Hérault", "code_departement": "34", "region": "Occitanie", "code_region": "76", "Métropole": "Montpellier" }, "geometry": { "type": "Point", "coordinates": [ 3.88095926169481, 43.601376578743697 ] } },
{ "type": "Feature", "properties": { "type_etablissement": "doctors", "nom_etablissement": "RAZAU Christophe", "commune": "Montpellier", "code_commune": "34172", "departement": "Hérault", "code_departement": "34", "region": "Occitanie", "code_region": "76", "Métropole": "Montpellier" }, "geometry": { "type": "Point", "coordinates": [ 3.88290704835427, 43.605024047728698 ] } },
{ "type": "Feature", "properties": { "type_etablissement": "pharmacy", "nom_etablissement": "Pharmacie Mercier", "commune": "Bruz", "code_commune": "35047", "departement": "Ille-et-Vilaine", "code_departement": "35", "region": "Bretagne", "code_region": "53", "Métropole": "Rennes" }, "geometry": { "type": "Point", "coordinates": [ -1.75316234575916, 48.024422896737399 ] } },
{ "type": "Feature", "properties": { "type_etablissement": "pharmacy", "nom_etablissement": "Pharmacie Dom Bosco", "commune": "Montpellier", "code_commune": "34172", "departement": "Hérault", "code_departement": "34", "region": "Occitanie", "code_region": "76", "Métropole": "Montpellier" }, "geometry": { "type": "Point", "coordinates": [ 3.89236367915271, 43.605543222811299 ] } },
{ "type": "Feature", "properties": { "type_etablissement": "doctors", "nom_etablissement": "Docteur Christophe Venet", "commune": "Saint-Étienne", "code_commune": "42218", "departement": "Loire", "code_departement": "42", "region": "Auvergne-Rhône-Alpes", "code_region": "84", "Métropole": "Saint-Étienne" }, "geometry": { "type": "Point", "coordinates": [ 4.3922183910862, 45.436732999082203 ] } },
{ "type": "Feature", "properties": { "type_etablissement": "doctors", "nom_etablissement": null, "commune": "Montpellier", "code_commune": "34172", "departement": "Hérault", "code_departement": "34", "region": "Occitanie", "code_region": "76", "Métropole": "Montpellier" }, "geometry": { "type": "Point", "coordinates": [ 3.86019594642951, 43.617908374010902 ] } },
{ "type": "Feature", "properties": { "type_etablissement": "pharmacy", "nom_etablissement": "Pharmacie de Rothéneuf", "commune": "Saint-Malo", "code_commune": "35288", "departement": "Ille-et-Vilaine", "code_departement": "35", "region": "Bretagne", "code_region": "53", "Métropole": "Rennes" }, "geometry": { "type": "Point", "coordinates": [ -1.96781567759612, 48.682342281431502 ] } },
{ "type": "Feature", "properties": { "type_etablissement": "doctors", "nom_etablissement": "Docteur Philippe Franchini", "commune": "Saussan", "code_commune": "34295", "departement": "Hérault", "code_departement": "34", "region": "Occitanie", "code_region": "76", "Métropole": "Montpellier" }, "geometry": { "type": "Point", "coordinates": [ 3.77328835101298, 43.570331350493497 ] } },
{ "type": "Feature", "properties": { "type_etablissement": "pharmacy", "nom_etablissement": "Pharmacie du Mail", "commune": "Rennes", "code_commune": "35238", "departement": "Ille-et-Vilaine", "code_departement": "35", "region": "Bretagne", "code_region": "53", "Métropole": "Rennes" }, "geometry": { "type": "Point", "coordinates": [ -1.68898295134986, 48.109895677968701 ] } },
{ "type": "Feature", "properties": { "type_etablissement": "pharmacy", "nom_etablissement": "Pharmacie Saint-Sever", "commune": "Rouen", "code_commune": "76540", "departement": "Seine-Maritime", "code_departement": "76", "region": "Normandie", "code_region": "28", "Métropole": "Rouen" }, "geometry": { "type": "Point", "coordinates": [ 1.08636493404848, 49.431180421305903 ] } },
{ "type": "Feature", "properties": { "type_etablissement": "pharmacy", "nom_etablissement": "Pharmacie de l'Argentière", "commune": "Sassenage", "code_commune": "38474", "departement": "Isère", "code_departement": "38", "region": "Auvergne-Rhône-Alpes", "code_region": "84", "Métropole": "Grenoble" }, "geometry": { "type": "Point", "coordinates": [ 5.66928054855609, 45.200450752839203 ] } },
{ "type": "Feature", "properties": { "type_etablissement": "doctors", "nom_etablissement": "Dr Michard", "commune": "Lattes", "code_commune": "34129", "departement": "Hérault", "code_departement": "34", "region": "Occitanie", "code_region": "76", "Métropole": "Montpellier" }, "geometry": { "type": "Point", "coordinates": [ 3.92912863430945, 43.587537888966203 ] } },
{ "type": "Feature", "properties": { "type_etablissement": "doctors", "nom_etablissement": "Centre Médical Jacques Coeur", "commune": "Montpellier", "code_commune": "34172", "departement": "Hérault", "code_departement": "34", "region": "Occitanie", "code_region": "76", "Métropole": "Montpellier" }, "geometry": { "type": "Point", "coordinates": [ 3.90389206495851, 43.598753629783602 ] } },
{ "type": "Feature", "properties": { "type_etablissement": "clinic", "nom_etablissement": "Centre de santé Presqu'île de Grenoble", "commune": "Grenoble", "code_commune": "38185", "departement": "Isère", "code_departement": "38", "region": "Auvergne-Rhône-Alpes", "code_region": "84", "Métropole": "Grenoble" }, "geometry": { "type": "Point", "coordinates": [ 5.70392479839091, 45.203259696230703 ] } },
{ "type": "Feature", "properties": { "type_etablissement": "doctors", "nom_etablissement": null, "commune": "Grenoble", "code_commune": "38185", "departement": "Isère", "code_departement": "38", "region": "Auvergne-Rhône-Alpes", "code_region": "84", "Métropole": "Grenoble" }, "geometry": { "type": "Point", "coordinates": [ 5.73322038817267, 45.166977119601498 ] } },
{ "type": "Feature", "properties": { "type_etablissement": "doctors", "nom_etablissement": "Docteur Déborah Pillot - Orthodontie De L'enfant E", "commune": "Saint-Jean-de-Védas", "code_commune": "34270", "departement": "Hérault", "code_departement": "34", "region": "Occitanie", "code_region": "76", "Métropole": "Montpellier" }, "geometry": { "type": "Point", "coordinates": [ 3.82155713299929, 43.5814670441356 ] } },
{ "type": "Feature", "properties": { "type_etablissement": "pharmacy", "nom_etablissement": "Pharmacie de Fonsala", "commune": "Saint-Chamond", "code_commune": "42207", "departement": "Loire", "code_departement": "42", "region": "Auvergne-Rhône-Alpes", "code_region": "84", "Métropole": "Saint-Étienne" }, "geometry": { "type": "Point", "coordinates": [ 4.5330427463044, 45.474994794507701 ] } },
{ "type": "Feature", "properties": { "type_etablissement": "doctors", "nom_etablissement": "Cabinet paramedical", "commune": "Rennes", "code_commune": "35238", "departement": "Ille-et-Vilaine", "code_departement": "35", "region": "Bretagne", "code_region": "53", "Métropole": "Rennes" }, "geometry": { "type": "Point", "coordinates": [ -1.66108655266487, 48.110374368458899 ] } },
{ "type": "Feature", "properties": { "type_etablissement": "doctors", "nom_etablissement": "Soins infirmiers Croizat", "commune": "Saint-Martin-d'Hères", "code_commune": "38421", "departement": "Isère", "code_departement": "38", "region": "Auvergne-Rhône-Alpes", "code_region": "84", "Métropole": "Grenoble" }, "geometry": { "type": "Point", "coordinates": [ 5.7589434431838, 45.182348943288602 ] } },
{ "type": "Feature", "properties": { "type_etablissement": "doctors", "nom_etablissement": "Joubrel", "commune": "Rennes", "code_commune": "35238", "departement": "Ille-et-Vilaine", "code_departement": "35", "region": "Bretagne", "code_region": "53", "Métropole": "Rennes" }, "geometry": { "type": "Point", "coordinates": [ -1.68575801410387, 48.111651183769297 ] } },
{ "type": "Feature", "properties": { "type_etablissement": "pharmacy", "nom_etablissement": "Pharmacie Léoty", "commune": "Lunel", "code_commune": "34145", "departement": "Hérault", "code_departement": "34", "region": "Occitanie", "code_region": "76", "Métropole": "Montpellier" }, "geometry": { "type": "Point", "coordinates": [ 4.12480156550518, 43.672664916691502 ] } },
{ "type": "Feature", "properties": { "type_etablissement": "pharmacy", "nom_etablissement": "Pharmacie du Viaduc", "commune": "Pélussin", "code_commune": "42168", "departement": "Loire", "code_departement": "42", "region": "Auvergne-Rhône-Alpes", "code_region": "84", "Métropole": "Saint-Étienne" }, "geometry": { "type": "Point", "coordinates": [ 4.67903177880103, 45.417514971486 ] } },
{ "type": "Feature", "properties": { "type_etablissement": "hospital", "nom_etablissement": "Hôpital de jour Réhabilitation", "commune": "Saint-Martin-d'Hères", "code_commune": "38421", "departement": "Isère", "code_departement": "38", "region": "Auvergne-Rhône-Alpes", "code_region": "84", "Métropole": "Grenoble" }, "geometry": { "type": "Point", "coordinates": [ 5.75351264047961, 45.185034169789198 ] } },
{ "type": "Feature", "properties": { "type_etablissement": "dentist", "nom_etablissement": "Docteur Sylvie Aronoff", "commune": "Le Mesnil-Esnard", "code_commune": "76429", "departement": "Seine-Maritime", "code_departement": "76", "region": "Normandie", "code_region": "28", "Métropole": "Rouen" }, "geometry": { "type": "Point", "coordinates": [ 1.13777768409611, 49.412478048392899 ] } },
{ "type": "Feature", "properties": { "type_etablissement": "pharmacy", "nom_etablissement": "Pharmacie Constantine", "commune": "Rouen", "code_commune": "76540", "departement": "Seine-Maritime", "code_departement": "76", "region": "Normandie", "code_region": "28", "Métropole": "Rouen" }, "geometry": { "type": "Point", "coordinates": [ 1.06749215704397, 49.449817331555103 ] } },
{ "type": "Feature", "properties": { "type_etablissement": "pharmacy", "nom_etablissement": "Pharmacie Mabilais", "commune": "Rennes", "code_commune": "35238", "departement": "Ille-et-Vilaine", "code_departement": "35", "region": "Bretagne", "code_region": "53", "Métropole": "Rennes" }, "geometry": { "type": "Point", "coordinates": [ -1.6907108806891, 48.105096451668601 ] } },
{ "type": "Feature", "properties": { "type_etablissement": "pharmacy", "nom_etablissement": "Pharmacie Blayau", "commune": "Betton", "code_commune": "35024", "departement": "Ille-et-Vilaine", "code_departement": "35", "region": "Bretagne", "code_region": "53", "Métropole": "Rennes" }, "geometry": { "type": "Point", "coordinates": [ -1.64558413892644, 48.1838773728633 ] } },
{ "type": "Feature", "properties": { "type_etablissement": "pharmacy", "nom_etablissement": "Pharmacie Libération", "commune": "Grenoble", "code_commune": "38185", "departement": "Isère", "code_departement": "38", "region": "Auvergne-Rhône-Alpes", "code_region": "84", "Métropole": "Grenoble" }, "geometry": { "type": "Point", "coordinates": [ 5.70971225107513, 45.161532319119097 ] } },
{ "type": "Feature", "properties": { "type_etablissement": "pharmacy", "nom_etablissement": "Grande Pharmacie du Soleil", "commune": "Le Chambon-Feugerolles", "code_commune": "42044", "departement": "Loire", "code_departement": "42", "region": "Auvergne-Rhône-Alpes", "code_region": "84", "Métropole": "Saint-Étienne" }, "geometry": { "type": "Point", "coordinates": [ 4.32551914512587, 45.396140028746103 ] } },
{ "type": "Feature", "properties": { "type_etablissement": "pharmacy", "nom_etablissement": "Pharmacie de la Grande Bibliothèque", "commune": "Montpellier", "code_commune": "34172", "departement": "Hérault", "code_departement": "34", "region": "Occitanie", "code_region": "76", "Métropole": "Montpellier" }, "geometry": { "type": "Point", "coordinates": [ 3.89161064897158, 43.608535897520298 ] } },
{ "type": "Feature", "properties": { "type_etablissement": "pharmacy", "nom_etablissement": "Pharmacie de la Mandragore", "commune": "Grenoble", "code_commune": "38185", "departement": "Isère", "code_departement": "38", "region": "Auvergne-Rhône-Alpes", "code_region": "84", "Métropole": "Grenoble" }, "geometry": { "type": "Point", "coordinates": [ 5.72670899051136, 45.189685958412497 ] } },
{ "type": "Feature", "properties": { "type_etablissement": "dentist", "nom_etablissement": "Dentiste Cuynat", "commune": "Eybens", "code_commune": "38158", "departement": "Isère", "code_departement": "38", "region": "Auvergne-Rhône-Alpes", "code_region": "84", "Métropole": "Grenoble" }, "geometry": { "type": "Point", "coordinates": [ 5.74885674472381, 45.152150957811202 ] } },
{ "type": "Feature", "properties": { "type_etablissement": "doctors", "nom_etablissement": null, "commune": "Montpellier", "code_commune": "34172", "departement": "Hérault", "code_departement": "34", "region": "Occitanie", "code_region": "76", "Métropole": "Montpellier" }, "geometry": { "type": "Point", "coordinates": [ 3.87696268644265, 43.6103795809424 ] } },
{ "type": "Feature", "properties": { "type_etablissement": "pharmacy", "nom_etablissement": null, "commune": "Jarrie", "code_commune": "38200", "departement": "Isère", "code_departement": "38", "region": "Auvergne-Rhône-Alpes", "code_region": "84", "Métropole": "Grenoble" }, "geometry": { "type": "Point", "coordinates": [ 5.75738365482224, 45.114614783743399 ] } },
{ "type": "Feature", "properties": { "type_etablissement": "pharmacy", "nom_etablissement": "Pharmacie des Fontenelles", "commune": "Saint-Malo", "code_commune": "35288", "departement": "Ille-et-Vilaine", "code_departement": "35", "region": "Bretagne", "code_region": "53", "Métropole": "Rennes" }, "geometry": { "type": "Point", "coordinates": [ -1.97967682495792, 48.668422287193202 ] } },
{ "type": "Feature", "properties": { "type_etablissement": "dentist", "nom_etablissement": null, "commune": "Montpellier", "code_commune": "34172", "departement": "Hérault", "code_departement": "34", "region": "Occitanie", "code_region": "76", "Métropole": "Montpellier" }, "geometry": { "type": "Point", "coordinates": [ 3.88038526896548, 43.616722921445103 ] } },
{ "type": "Feature", "properties": { "type_etablissement": "doctors", "nom_etablissement": "Ostéopathe Olivier Leandro", "commune": "Montpellier", "code_commune": "34172", "departement": "Hérault", "code_departement": "34", "region": "Occitanie", "code_region": "76", "Métropole": "Montpellier" }, "geometry": { "type": "Point", "coordinates": [ 3.89879762802869, 43.602063978623001 ] } },
{ "type": "Feature", "properties": { "type_etablissement": "pharmacy", "nom_etablissement": "Pharmacie Méridienne", "commune": "Rouen", "code_commune": "76540", "departement": "Seine-Maritime", "code_departement": "76", "region": "Normandie", "code_region": "28", "Métropole": "Rouen" }, "geometry": { "type": "Point", "coordinates": [ 1.08251286280702, 49.425933517557297 ] } },
{ "type": "Feature", "properties": { "type_etablissement": "pharmacy", "nom_etablissement": "Pharmacie Centrale", "commune": "Castelnau-le-Lez", "code_commune": "34057", "departement": "Hérault", "code_departement": "34", "region": "Occitanie", "code_region": "76", "Métropole": "Montpellier" }, "geometry": { "type": "Point", "coordinates": [ 3.89916475538769, 43.632438738438303 ] } },
{ "type": "Feature", "properties": { "type_etablissement": "pharmacy", "nom_etablissement": "Pharmacie du Verger", "commune": "Rennes", "code_commune": "35238", "departement": "Ille-et-Vilaine", "code_departement": "35", "region": "Bretagne", "code_region": "53", "Métropole": "Rennes" }, "geometry": { "type": "Point", "coordinates": [ -1.66793305881507, 48.106543671070597 ] } },
{ "type": "Feature", "properties": { "type_etablissement": "pharmacy", "nom_etablissement": "Pharmacie du Rondeau", "commune": "Échirolles", "code_commune": "38151", "departement": "Isère", "code_departement": "38", "region": "Auvergne-Rhône-Alpes", "code_region": "84", "Métropole": "Grenoble" }, "geometry": { "type": "Point", "coordinates": [ 5.70579136440861, 45.151273875462998 ] } },
{ "type": "Feature", "properties": { "type_etablissement": "pharmacy", "nom_etablissement": "Pharmacie de la Marandinière", "commune": "Saint-Étienne", "code_commune": "42218", "departement": "Loire", "code_departement": "42", "region": "Auvergne-Rhône-Alpes", "code_region": "84", "Métropole": "Saint-Étienne" }, "geometry": { "type": "Point", "coordinates": [ 4.41926276931361, 45.425403180562498 ] } },
{ "type": "Feature", "properties": { "type_etablissement": "pharmacy", "nom_etablissement": "Lafayette", "commune": "Rennes", "code_commune": "35238", "departement": "Ille-et-Vilaine", "code_departement": "35", "region": "Bretagne", "code_region": "53", "Métropole": "Rennes" }, "geometry": { "type": "Point", "coordinates": [ -1.68113883108396, 48.1056694385695 ] } },
{ "type": "Feature", "properties": { "type_etablissement": "doctors", "nom_etablissement": "Cabinet médical", "commune": "Rennes", "code_commune": "35238", "departement": "Ille-et-Vilaine", "code_departement": "35", "region": "Bretagne", "code_region": "53", "Métropole": "Rennes" }, "geometry": { "type": "Point", "coordinates": [ -1.69501264103579, 48.0854937785357 ] } },
{ "type": "Feature", "properties": { "type_etablissement": "pharmacy", "nom_etablissement": "Pharmacie de la Montat", "commune": "Saint-Étienne", "code_commune": "42218", "departement": "Loire", "code_departement": "42", "region": "Auvergne-Rhône-Alpes", "code_region": "84", "Métropole": "Saint-Étienne" }, "geometry": { "type": "Point", "coordinates": [ 4.40801609927343, 45.442169669118599 ] } },
{ "type": "Feature", "properties": { "type_etablissement": "pharmacy", "nom_etablissement": "Para+Pharmacie des Grisettes", "commune": "Montpellier", "code_commune": "34172", "departement": "Hérault", "code_departement": "34", "region": "Occitanie", "code_region": "76", "Métropole": "Montpellier" }, "geometry": { "type": "Point", "coordinates": [ 3.85861579004324, 43.583568051985097 ] } },
{ "type": "Feature", "properties": { "type_etablissement": "dentist", "nom_etablissement": "Centre Dentaire Mutualiste", "commune": "Montpellier", "code_commune": "34172", "departement": "Hérault", "code_departement": "34", "region": "Occitanie", "code_region": "76", "Métropole": "Montpellier" }, "geometry": { "type": "Point", "coordinates": [ 3.85758179846775, 43.5824961742073 ] } },
{ "type": "Feature", "properties": { "type_etablissement": "doctors", "nom_etablissement": "Ophtalmologie Khaled Soua", "commune": "Juvignac", "code_commune": "34123", "departement": "Hérault", "code_departement": "34", "region": "Occitanie", "code_region": "76", "Métropole": "Montpellier" }, "geometry": { "type": "Point", "coordinates": [ 3.81085947761699, 43.614644460915102 ] } },
{ "type": "Feature", "properties": { "type_etablissement": "pharmacy", "nom_etablissement": "Pharmacie de l'Escoutaïre", "commune": "Montpellier", "code_commune": "34172", "departement": "Hérault", "code_departement": "34", "region": "Occitanie", "code_region": "76", "Métropole": "Montpellier" }, "geometry": { "type": "Point", "coordinates": [ 3.88614053514152, 43.593769498699601 ] } },
{ "type": "Feature", "properties": { "type_etablissement": "doctors", "nom_etablissement": null, "commune": "Grenoble", "code_commune": "38185", "departement": "Isère", "code_departement": "38", "region": "Auvergne-Rhône-Alpes", "code_region": "84", "Métropole": "Grenoble" }, "geometry": { "type": "Point", "coordinates": [ 5.74143943096752, 45.178123374441697 ] } },
{ "type": "Feature", "properties": { "type_etablissement": "doctors", "nom_etablissement": "Pédiatre - Docteur Misraoui", "commune": "Montpellier", "code_commune": "34172", "departement": "Hérault", "code_departement": "34", "region": "Occitanie", "code_region": "76", "Métropole": "Montpellier" }, "geometry": { "type": "Point", "coordinates": [ 3.86213593791902, 43.611649523092197 ] } },
{ "type": "Feature", "properties": { "type_etablissement": "pharmacy", "nom_etablissement": "Pharmacie Duranton", "commune": "Saint-Étienne", "code_commune": "42218", "departement": "Loire", "code_departement": "42", "region": "Auvergne-Rhône-Alpes", "code_region": "84", "Métropole": "Saint-Étienne" }, "geometry": { "type": "Point", "coordinates": [ 4.39252307326655, 45.421835255838701 ] } },
{ "type": "Feature", "properties": { "type_etablissement": "pharmacy", "nom_etablissement": "Pharmacie Charcot", "commune": "Saint-Étienne", "code_commune": "42218", "departement": "Loire", "code_departement": "42", "region": "Auvergne-Rhône-Alpes", "code_region": "84", "Métropole": "Saint-Étienne" }, "geometry": { "type": "Point", "coordinates": [ 4.39243833222545, 45.420081845513799 ] } },
{ "type": "Feature", "properties": { "type_etablissement": "pharmacy", "nom_etablissement": "Pharmacie de Vert-Bois", "commune": "Montpellier", "code_commune": "34172", "departement": "Hérault", "code_departement": "34", "region": "Occitanie", "code_region": "76", "Métropole": "Montpellier" }, "geometry": { "type": "Point", "coordinates": [ 3.86870894256865, 43.635286238584399 ] } },
{ "type": "Feature", "properties": { "type_etablissement": "doctors", "nom_etablissement": "SOS Médecins", "commune": "Sotteville-lès-Rouen", "code_commune": "76681", "departement": "Seine-Maritime", "code_departement": "76", "region": "Normandie", "code_region": "28", "Métropole": "Rouen" }, "geometry": { "type": "Point", "coordinates": [ 1.07217328232829, 49.411167034917497 ] } },
{ "type": "Feature", "properties": { "type_etablissement": "pharmacy", "nom_etablissement": null, "commune": "La Chapelle-Thouarault", "code_commune": "35065", "departement": "Ille-et-Vilaine", "code_departement": "35", "region": "Bretagne", "code_region": "53", "Métropole": "Rennes" }, "geometry": { "type": "Point", "coordinates": [ -1.86652322759127, 48.1241597493323 ] } },
{ "type": "Feature", "properties": { "type_etablissement": "pharmacy", "nom_etablissement": "Pharmacie Condorcet", "commune": "Grenoble", "code_commune": "38185", "departement": "Isère", "code_departement": "38", "region": "Auvergne-Rhône-Alpes", "code_region": "84", "Métropole": "Grenoble" }, "geometry": { "type": "Point", "coordinates": [ 5.71873243617532, 45.186184166904603 ] } },
{ "type": "Feature", "properties": { "type_etablissement": "doctors", "nom_etablissement": "Access vision", "commune": "Montpellier", "code_commune": "34172", "departement": "Hérault", "code_departement": "34", "region": "Occitanie", "code_region": "76", "Métropole": "Montpellier" }, "geometry": { "type": "Point", "coordinates": [ 3.87077617134835, 43.607345499631599 ] } },
{ "type": "Feature", "properties": { "type_etablissement": "doctors", "nom_etablissement": "Cabinet de Médecine Générale", "commune": "Rennes", "code_commune": "35238", "departement": "Ille-et-Vilaine", "code_departement": "35", "region": "Bretagne", "code_region": "53", "Métropole": "Rennes" }, "geometry": { "type": "Point", "coordinates": [ -1.66493317566926, 48.085625793510701 ] } },
{ "type": "Feature", "properties": { "type_etablissement": "doctors", "nom_etablissement": "Centre Médico-Chirurgical d'Ophtalmologie", "commune": "Saint-Jean-de-Védas", "code_commune": "34270", "departement": "Hérault", "code_departement": "34", "region": "Occitanie", "code_region": "76", "Métropole": "Montpellier" }, "geometry": { "type": "Point", "coordinates": [ 3.83696516650798, 43.568087431194897 ] } },
{ "type": "Feature", "properties": { "type_etablissement": "pharmacy", "nom_etablissement": "Pharmacie Maguero", "commune": "Chartres-de-Bretagne", "code_commune": "35066", "departement": "Ille-et-Vilaine", "code_departement": "35", "region": "Bretagne", "code_region": "53", "Métropole": "Rennes" }, "geometry": { "type": "Point", "coordinates": [ -1.70523562924137, 48.042190016894303 ] } },
{ "type": "Feature", "properties": { "type_etablissement": "pharmacy", "nom_etablissement": "Pharmacie de la Madeleine", "commune": "Rennes", "code_commune": "35238", "departement": "Ille-et-Vilaine", "code_departement": "35", "region": "Bretagne", "code_region": "53", "Métropole": "Rennes" }, "geometry": { "type": "Point", "coordinates": [ -1.68835137494574, 48.097600683298602 ] } },
{ "type": "Feature", "properties": { "type_etablissement": "pharmacy", "nom_etablissement": "Pharmacie de Rochebonne", "commune": "Saint-Malo", "code_commune": "35288", "departement": "Ille-et-Vilaine", "code_departement": "35", "region": "Bretagne", "code_region": "53", "Métropole": "Rennes" }, "geometry": { "type": "Point", "coordinates": [ -1.98842971116591, 48.662491671602801 ] } },
{ "type": "Feature", "properties": { "type_etablissement": "doctors", "nom_etablissement": "Dr Deleuze", "commune": "Montpellier", "code_commune": "34172", "departement": "Hérault", "code_departement": "34", "region": "Occitanie", "code_region": "76", "Métropole": "Montpellier" }, "geometry": { "type": "Point", "coordinates": [ 3.89536205355591, 43.602814997147298 ] } },
{ "type": "Feature", "properties": { "type_etablissement": "doctors", "nom_etablissement": "La Maison Papillon", "commune": "Montpellier", "code_commune": "34172", "departement": "Hérault", "code_departement": "34", "region": "Occitanie", "code_region": "76", "Métropole": "Montpellier" }, "geometry": { "type": "Point", "coordinates": [ 3.870191533602, 43.615242425887502 ] } },
{ "type": "Feature", "properties": { "type_etablissement": "dentist", "nom_etablissement": "Dr Laurence LE CADRE LECUYER", "commune": "Rennes", "code_commune": "35238", "departement": "Ille-et-Vilaine", "code_departement": "35", "region": "Bretagne", "code_region": "53", "Métropole": "Rennes" }, "geometry": { "type": "Point", "coordinates": [ -1.67774407647966, 48.108022741704602 ] } },
{ "type": "Feature", "properties": { "type_etablissement": "doctors", "nom_etablissement": "Christine Gascoin;Francine Poulain;Agnès Lecerf", "commune": "Rouen", "code_commune": "76540", "departement": "Seine-Maritime", "code_departement": "76", "region": "Normandie", "code_region": "28", "Métropole": "Rouen" }, "geometry": { "type": "Point", "coordinates": [ 1.10932682251618, 49.442335644782403 ] } },
{ "type": "Feature", "properties": { "type_etablissement": "doctors", "nom_etablissement": "Dr Paris Kholer - Allergologue", "commune": "Montferrier-sur-Lez", "code_commune": "34169", "departement": "Hérault", "code_departement": "34", "region": "Occitanie", "code_region": "76", "Métropole": "Montpellier" }, "geometry": { "type": "Point", "coordinates": [ 3.8638119832776, 43.671424897935999 ] } },
{ "type": "Feature", "properties": { "type_etablissement": "doctors", "nom_etablissement": "Dr Bénédicte Rouchouse", "commune": "Saint-Chamond", "code_commune": "42207", "departement": "Loire", "code_departement": "42", "region": "Auvergne-Rhône-Alpes", "code_region": "84", "Métropole": "Saint-Étienne" }, "geometry": { "type": "Point", "coordinates": [ 4.50754759524057, 45.4739987729536 ] } },
{ "type": "Feature", "properties": { "type_etablissement": "doctors", "nom_etablissement": "SOS Médecins Saint-Étienne", "commune": "Saint-Étienne", "code_commune": "42218", "departement": "Loire", "code_departement": "42", "region": "Auvergne-Rhône-Alpes", "code_region": "84", "Métropole": "Saint-Étienne" }, "geometry": { "type": "Point", "coordinates": [ 4.41817815104295, 45.424733969413197 ] } },
{ "type": "Feature", "properties": { "type_etablissement": "doctors", "nom_etablissement": null, "commune": "Saint-Jean-de-Védas", "code_commune": "34270", "departement": "Hérault", "code_departement": "34", "region": "Occitanie", "code_region": "76", "Métropole": "Montpellier" }, "geometry": { "type": "Point", "coordinates": [ 3.82820306020653, 43.5777331577289 ] } },
{ "type": "Feature", "properties": { "type_etablissement": "hospital", "nom_etablissement": "Hôpital de jour Adosphère", "commune": "Saint-Étienne-du-Rouvray", "code_commune": "76575", "departement": "Seine-Maritime", "code_departement": "76", "region": "Normandie", "code_region": "28", "Métropole": "Rouen" }, "geometry": { "type": "Point", "coordinates": [ 1.10286462662651, 49.395709380542002 ] } },
{ "type": "Feature", "properties": { "type_etablissement": "hospital", "nom_etablissement": "Hôpital psychiatrique", "commune": "Rouen", "code_commune": "76540", "departement": "Seine-Maritime", "code_departement": "76", "region": "Normandie", "code_region": "28", "Métropole": "Rouen" }, "geometry": { "type": "Point", "coordinates": [ 1.10738515464604, 49.440936956599899 ] } },
{ "type": "Feature", "properties": { "type_etablissement": "dentist", "nom_etablissement": "Dentiste Sussargues", "commune": "Sussargues", "code_commune": "34307", "departement": "Hérault", "code_departement": "34", "region": "Occitanie", "code_region": "76", "Métropole": "Montpellier" }, "geometry": { "type": "Point", "coordinates": [ 4.00451019085304, 43.712720020300999 ] } },
{ "type": "Feature", "properties": { "type_etablissement": "nursing_home", "nom_etablissement": "Le moulin des prés", "commune": "Le Mesnil-Esnard", "code_commune": "76429", "departement": "Seine-Maritime", "code_departement": "76", "region": "Normandie", "code_region": "28", "Métropole": "Rouen" }, "geometry": { "type": "Point", "coordinates": [ 1.14883827588582, 49.4082187842953 ] } },
{ "type": "Feature", "properties": { "type_etablissement": "nursing_home", "nom_etablissement": "La côte de velours", "commune": "Notre-Dame-de-Bondeville", "code_commune": "76474", "departement": "Seine-Maritime", "code_departement": "76", "region": "Normandie", "code_region": "28", "Métropole": "Rouen" }, "geometry": { "type": "Point", "coordinates": [ 1.04094055090411, 49.486609360259102 ] } },
{ "type": "Feature", "properties": { "type_etablissement": "dentist", "nom_etablissement": "Cabinet dentaire Vauban", "commune": "Grenoble", "code_commune": "38185", "departement": "Isère", "code_departement": "38", "region": "Auvergne-Rhône-Alpes", "code_region": "84", "Métropole": "Grenoble" }, "geometry": { "type": "Point", "coordinates": [ 5.7236788486951, 45.188321887489998 ] } },
{ "type": "Feature", "properties": { "type_etablissement": "doctors", "nom_etablissement": "Accès Vision", "commune": "Grenoble", "code_commune": "38185", "departement": "Isère", "code_departement": "38", "region": "Auvergne-Rhône-Alpes", "code_region": "84", "Métropole": "Grenoble" }, "geometry": { "type": "Point", "coordinates": [ 5.72455467375769, 45.190032131013503 ] } },
{ "type": "Feature", "properties": { "type_etablissement": "pharmacy", "nom_etablissement": "Pharmacie Louvel", "commune": "Grand-Couronne", "code_commune": "76319", "departement": "Seine-Maritime", "code_departement": "76", "region": "Normandie", "code_region": "28", "Métropole": "Rouen" }, "geometry": { "type": "Point", "coordinates": [ 1.02331474963472, 49.349276654445902 ] } },
{ "type": "Feature", "properties": { "type_etablissement": "pharmacy", "nom_etablissement": "Pharmacie de l'Hôtel de Ville", "commune": "Saint-Étienne", "code_commune": "42218", "departement": "Loire", "code_departement": "42", "region": "Auvergne-Rhône-Alpes", "code_region": "84", "Métropole": "Saint-Étienne" }, "geometry": { "type": "Point", "coordinates": [ 4.38817906812784, 45.438667626153702 ] } },
{ "type": "Feature", "properties": { "type_etablissement": "pharmacy", "nom_etablissement": "Pharmacie de Gaffard", "commune": "Le Chambon-Feugerolles", "code_commune": "42044", "departement": "Loire", "code_departement": "42", "region": "Auvergne-Rhône-Alpes", "code_region": "84", "Métropole": "Saint-Étienne" }, "geometry": { "type": "Point", "coordinates": [ 4.30714794120723, 45.384868632091496 ] } },
{ "type": "Feature", "properties": { "type_etablissement": "doctors", "nom_etablissement": "Lagarde", "commune": "Champ-sur-Drac", "code_commune": "38071", "departement": "Isère", "code_departement": "38", "region": "Auvergne-Rhône-Alpes", "code_region": "84", "Métropole": "Grenoble" }, "geometry": { "type": "Point", "coordinates": [ 5.73618137928773, 45.080212267996103 ] } },
{ "type": "Feature", "properties": { "type_etablissement": "doctors", "nom_etablissement": "Thierry Perrin", "commune": "Saint-Malo", "code_commune": "35288", "departement": "Ille-et-Vilaine", "code_departement": "35", "region": "Bretagne", "code_region": "53", "Métropole": "Rennes" }, "geometry": { "type": "Point", "coordinates": [ -2.01079112009026, 48.632516393292697 ] } },
{ "type": "Feature", "properties": { "type_etablissement": "dentist", "nom_etablissement": "Cabinet Dentaire Des Sommets", "commune": "Grenoble", "code_commune": "38185", "departement": "Isère", "code_departement": "38", "region": "Auvergne-Rhône-Alpes", "code_region": "84", "Métropole": "Grenoble" }, "geometry": { "type": "Point", "coordinates": [ 5.73302668239032, 45.167255482606002 ] } },
{ "type": "Feature", "properties": { "type_etablissement": "pharmacy", "nom_etablissement": "Pharmacie du Triolet", "commune": "Montpellier", "code_commune": "34172", "departement": "Hérault", "code_departement": "34", "region": "Occitanie", "code_region": "76", "Métropole": "Montpellier" }, "geometry": { "type": "Point", "coordinates": [ 3.85856625299547, 43.631909672710002 ] } },
{ "type": "Feature", "properties": { "type_etablissement": "doctors", "nom_etablissement": "Dr Charlotte Michon", "commune": "Saint-Martin-le-Vinoux", "code_commune": "38423", "departement": "Isère", "code_departement": "38", "region": "Auvergne-Rhône-Alpes", "code_region": "84", "Métropole": "Grenoble" }, "geometry": { "type": "Point", "coordinates": [ 5.70687707232668, 45.207870832623499 ] } },
{ "type": "Feature", "properties": { "type_etablissement": "pharmacy", "nom_etablissement": "Pharmacie de Tourville", "commune": "Tourville-la-Rivière", "code_commune": "76705", "departement": "Seine-Maritime", "code_departement": "76", "region": "Normandie", "code_region": "28", "Métropole": "Rouen" }, "geometry": { "type": "Point", "coordinates": [ 1.1015175709675, 49.331240978111303 ] } },
{ "type": "Feature", "properties": { "type_etablissement": "hospital", "nom_etablissement": "Hôpital de Bois-Guillaume", "commune": "Bois-Guillaume", "code_commune": "76108", "departement": "Seine-Maritime", "code_departement": "76", "region": "Normandie", "code_region": "28", "Métropole": "Rouen" }, "geometry": { "type": "Point", "coordinates": [ 1.11807728365072, 49.464735441119302 ] } },
{ "type": "Feature", "properties": { "type_etablissement": "pharmacy", "nom_etablissement": "Pharmacie de l'entre deux rives", "commune": "Chavagne", "code_commune": "35076", "departement": "Ille-et-Vilaine", "code_departement": "35", "region": "Bretagne", "code_region": "53", "Métropole": "Rennes" }, "geometry": { "type": "Point", "coordinates": [ -1.78968087296261, 48.052793459684899 ] } },
{ "type": "Feature", "properties": { "type_etablissement": "pharmacy", "nom_etablissement": "Grande Pharmacie Normale", "commune": "Grenoble", "code_commune": "38185", "departement": "Isère", "code_departement": "38", "region": "Auvergne-Rhône-Alpes", "code_region": "84", "Métropole": "Grenoble" }, "geometry": { "type": "Point", "coordinates": [ 5.72805235813297, 45.190284845394203 ] } },
{ "type": "Feature", "properties": { "type_etablissement": "pharmacy", "nom_etablissement": "Pharmacie de la Gare", "commune": "Grenoble", "code_commune": "38185", "departement": "Isère", "code_departement": "38", "region": "Auvergne-Rhône-Alpes", "code_region": "84", "Métropole": "Grenoble" }, "geometry": { "type": "Point", "coordinates": [ 5.71812734658522, 45.189869689730003 ] } },
{ "type": "Feature", "properties": { "type_etablissement": "pharmacy", "nom_etablissement": "Pharmacie Le Pavie", "commune": "Montpellier", "code_commune": "34172", "departement": "Hérault", "code_departement": "34", "region": "Occitanie", "code_region": "76", "Métropole": "Montpellier" }, "geometry": { "type": "Point", "coordinates": [ 3.86677766825844, 43.595473036700497 ] } },
{ "type": "Feature", "properties": { "type_etablissement": "pharmacy", "nom_etablissement": "Pharmacie", "commune": "Cournonsec", "code_commune": "34087", "departement": "Hérault", "code_departement": "34", "region": "Occitanie", "code_region": "76", "Métropole": "Montpellier" }, "geometry": { "type": "Point", "coordinates": [ 3.71020237587268, 43.5534366188189 ] } },
{ "type": "Feature", "properties": { "type_etablissement": "doctors", "nom_etablissement": null, "commune": "Montpellier", "code_commune": "34172", "departement": "Hérault", "code_departement": "34", "region": "Occitanie", "code_region": "76", "Métropole": "Montpellier" }, "geometry": { "type": "Point", "coordinates": [ 3.87637209754504, 43.6105825906372 ] } },
{ "type": "Feature", "properties": { "type_etablissement": "nursing_home", "nom_etablissement": "EHPAD Ma Maison", "commune": "La Tronche", "code_commune": "38516", "departement": "Isère", "code_departement": "38", "region": "Auvergne-Rhône-Alpes", "code_region": "84", "Métropole": "Grenoble" }, "geometry": { "type": "Point", "coordinates": [ 5.73696547369125, 45.203096720424398 ] } },
{ "type": "Feature", "properties": { "type_etablissement": "clinic", "nom_etablissement": "Service de Soins de Suite et de Réadaptation du Château-Blanc", "commune": "Saint-Étienne-du-Rouvray", "code_commune": "76575", "departement": "Seine-Maritime", "code_departement": "76", "region": "Normandie", "code_region": "28", "Métropole": "Rouen" }, "geometry": { "type": "Point", "coordinates": [ 1.0726434232773, 49.396195279468998 ] } },
{ "type": "Feature", "properties": { "type_etablissement": "pharmacy", "nom_etablissement": "Pharmacie du Cormier", "commune": "Rennes", "code_commune": "35238", "departement": "Ille-et-Vilaine", "code_departement": "35", "region": "Bretagne", "code_region": "53", "Métropole": "Rennes" }, "geometry": { "type": "Point", "coordinates": [ -1.65872478380768, 48.093065151672398 ] } },
{ "type": "Feature", "properties": { "type_etablissement": "pharmacy", "nom_etablissement": "Pharmacie de la Feuilletière", "commune": "Villars", "code_commune": "42330", "departement": "Loire", "code_departement": "42", "region": "Auvergne-Rhône-Alpes", "code_region": "84", "Métropole": "Saint-Étienne" }, "geometry": { "type": "Point", "coordinates": [ 4.36029482320245, 45.469562734518 ] } },
{ "type": "Feature", "properties": { "type_etablissement": "doctors", "nom_etablissement": "Cabinet de Radiologie", "commune": "Bruz", "code_commune": "35047", "departement": "Ille-et-Vilaine", "code_departement": "35", "region": "Bretagne", "code_region": "53", "Métropole": "Rennes" }, "geometry": { "type": "Point", "coordinates": [ -1.75792787680845, 48.029070997323203 ] } },
{ "type": "Feature", "properties": { "type_etablissement": "doctors", "nom_etablissement": null, "commune": "Bruz", "code_commune": "35047", "departement": "Ille-et-Vilaine", "code_departement": "35", "region": "Bretagne", "code_region": "53", "Métropole": "Rennes" }, "geometry": { "type": "Point", "coordinates": [ -1.75263696806823, 48.025081127593602 ] } },
{ "type": "Feature", "properties": { "type_etablissement": "doctors", "nom_etablissement": "Volle Alain", "commune": "Montpellier", "code_commune": "34172", "departement": "Hérault", "code_departement": "34", "region": "Occitanie", "code_region": "76", "Métropole": "Montpellier" }, "geometry": { "type": "Point", "coordinates": [ 3.88898384433605, 43.607895855393998 ] } },
{ "type": "Feature", "properties": { "type_etablissement": "nursing_home", "nom_etablissement": "Résidence Carola", "commune": "Grand-Couronne", "code_commune": "76319", "departement": "Seine-Maritime", "code_departement": "76", "region": "Normandie", "code_region": "28", "Métropole": "Rouen" }, "geometry": { "type": "Point", "coordinates": [ 1.0203158723173, 49.335309637730802 ] } },
{ "type": "Feature", "properties": { "type_etablissement": "dentist", "nom_etablissement": "Cabinet de soins Chavanelle", "commune": "Saint-Étienne", "code_commune": "42218", "departement": "Loire", "code_departement": "42", "region": "Auvergne-Rhône-Alpes", "code_region": "84", "Métropole": "Saint-Étienne" }, "geometry": { "type": "Point", "coordinates": [ 4.39274988756643, 45.434164783949797 ] } },
{ "type": "Feature", "properties": { "type_etablissement": "pharmacy", "nom_etablissement": "Pharmacie du Plateau", "commune": "Saint-Christo-en-Jarez", "code_commune": "42208", "departement": "Loire", "code_departement": "42", "region": "Auvergne-Rhône-Alpes", "code_region": "84", "Métropole": "Saint-Étienne" }, "geometry": { "type": "Point", "coordinates": [ 4.48579923871429, 45.544366861752003 ] } },
{ "type": "Feature", "properties": { "type_etablissement": "clinic", "nom_etablissement": "AUB Santé", "commune": "Montgermont", "code_commune": "35189", "departement": "Ille-et-Vilaine", "code_departement": "35", "region": "Bretagne", "code_region": "53", "Métropole": "Rennes" }, "geometry": { "type": "Point", "coordinates": [ -1.71293776006752, 48.151799997056301 ] } },
{ "type": "Feature", "properties": { "type_etablissement": "nursing_home", "nom_etablissement": "Résidence Saint-Hélier", "commune": "Rennes", "code_commune": "35238", "departement": "Ille-et-Vilaine", "code_departement": "35", "region": "Bretagne", "code_region": "53", "Métropole": "Rennes" }, "geometry": { "type": "Point", "coordinates": [ -1.67028921179715, 48.105692740260402 ] } },
{ "type": "Feature", "properties": { "type_etablissement": "pharmacy", "nom_etablissement": "Pharmacie de la Gare", "commune": "Saint-Étienne", "code_commune": "42218", "departement": "Loire", "code_departement": "42", "region": "Auvergne-Rhône-Alpes", "code_region": "84", "Métropole": "Saint-Étienne" }, "geometry": { "type": "Point", "coordinates": [ 4.39781104834066, 45.440833258476601 ] } },
{ "type": "Feature", "properties": { "type_etablissement": "doctors", "nom_etablissement": null, "commune": "Montpellier", "code_commune": "34172", "departement": "Hérault", "code_departement": "34", "region": "Occitanie", "code_region": "76", "Métropole": "Montpellier" },